City ID,City,Country,Date,Lat,Lng,Min Temp,Max Temp,Humidity,Cloudiness,Wind Speed,Description
0,Ushuaia,AR,2022-01-29 20:40:06,-54.8,-68.3,46.06,46.06,93,75,25.32,moderate rain
1,Hilo,US,2022-01-29 20:37:14,19.7297,-155.09,73.4,78.53,61,100,3.44,overcast clouds
2,Te Anau,NZ,2022-01-29 20:41:05,-45.4167,167.7167,57.67,57.67,88,100,1.41,light rain
3,Dunmore East,IE,2022-01-29 20:41:06,52.1514,-6.9861,40.62,44.69,77,20,1.14,few clouds
4,Puerto Ayora,EC,2022-01-29 20:37:34,-0.7393,-90.3518,80.56,80.56,71,28,9.35,scattered clouds
5,Evensk,RU,2022-01-29 20:41:06,61.95,159.2333,15.4,15.4,80,100,11.39,overcast clouds
6,Lompoc,US,2022-01-29 20:41:07,34.6391,-120.4579,60.69,69.19,40,0,0.0,clear sky
7,Kapaa,US,2022-01-29 20:41:07,22.0752,-159.319,77.32,78.78,72,0,3.0,clear sky
8,Hobart,AU,2022-01-29 20:41:07,-42.8794,147.3294,57.11,61.27,71,100,1.01,overcast clouds
9,Arraial Do Cabo,BR,2022-01-29 20:36:59,-22.9661,-42.0278,76.86,76.96,94,75,11.5,broken clouds
10,Busselton,AU,2022-01-29 20:41:08,-33.65,115.3333,65.08,67.05,91,5,14.34,clear sky
11,Vaini,TO,2022-01-29 20:41:08,-21.2,-175.2,81.46,81.46,78,100,16.84,overcast clouds
12,Albany,US,2022-01-29 20:41:09,42.6001,-73.9662,3.36,16.59,62,100,1.99,overcast clouds
13,Severnyy-Kospashskiy,RU,2022-01-29 20:41:09,59.0925,57.8008,8.6,8.6,63,100,4.74,overcast clouds
14,Hurricane,US,2022-01-29 20:37:56,37.1753,-113.2899,46.87,57.7,19,37,1.81,scattered clouds
15,Avarua,CK,2022-01-29 20:41:10,-21.2078,-159.775,82.45,82.45,78,20,11.5,few clouds
16,Port Elizabeth,ZA,2022-01-29 20:36:16,-33.918,25.5701,68.09,68.29,83,100,10.36,overcast clouds
17,Tura,IN,2022-01-29 20:40:10,25.5198,90.2201,50.61,50.61,59,0,2.48,clear sky
18,Butaritari,KI,2022-01-29 20:41:10,3.0707,172.7902,82.11,82.11,76,25,19.89,light rain
19,Jamestown,US,2022-01-29 20:39:12,42.097,-79.2353,10.51,17.29,49,0,7.0,clear sky
20,Isla Mujeres,MX,2022-01-29 20:41:11,21.2311,-86.731,71.17,71.17,65,100,18.54,overcast clouds
21,Castro,BR,2022-01-29 20:41:11,-24.7911,-50.0119,60.17,60.17,99,100,6.11,overcast clouds
22,Sept-Iles,CA,2022-01-29 20:41:11,50.2001,-66.3821,1.83,5.05,62,100,4.0,overcast clouds
23,Marshfield,US,2022-01-29 20:41:12,44.6689,-90.1718,19.31,24.24,58,75,11.5,broken clouds
24,Mataura,NZ,2022-01-29 20:41:12,-46.1927,168.8643,57.36,57.36,93,100,2.57,light rain
25,Handan,CN,2022-01-29 20:41:13,36.6006,114.4678,30.6,30.6,88,12,4.38,few clouds
26,Inhambane,MZ,2022-01-29 20:41:08,-23.865,35.3833,75.76,75.76,76,84,8.93,broken clouds
27,Mahebourg,MU,2022-01-29 20:41:13,-20.4081,57.7,79.25,80.89,78,40,9.22,scattered clouds
28,Chuy,UY,2022-01-29 20:41:13,-33.6971,-53.4616,74.12,74.12,61,18,11.32,few clouds
29,Sechura,PE,2022-01-29 20:40:28,-5.5569,-80.8222,79.21,79.21,62,58,16.93,broken clouds
30,Port Alfred,ZA,2022-01-29 20:41:14,-33.5906,26.891,70.18,70.18,83,46,12.37,scattered clouds
31,Nalut,LY,2022-01-29 20:41:14,30.3333,10.85,43.95,43.95,55,0,9.24,clear sky
32,Lewistown,US,2022-01-29 20:38:38,40.5992,-77.5714,20.01,24.08,64,0,9.22,clear sky
33,Atuona,PF,2022-01-29 20:41:15,-9.8,-139.0333,77.72,77.72,75,18,13.67,few clouds
34,Nadvoitsy,RU,2022-01-29 20:41:15,63.8667,34.3167,17.49,17.49,83,100,13.85,snow
35,Naron,ES,2022-01-29 20:41:16,43.5167,-8.1528,49.05,52.66,74,100,6.8,overcast clouds
36,Dunedin,NZ,2022-01-29 20:41:16,-45.8742,170.5036,62.8,62.8,89,100,4.27,light rain
37,Barrow,US,2022-01-29 20:41:17,71.2906,-156.7887,-7.58,-7.58,71,100,12.66,overcast clouds
38,Eirunepe,BR,2022-01-29 20:41:17,-6.6603,-69.8736,87.73,87.73,61,100,2.26,overcast clouds
39,East London,ZA,2022-01-29 20:41:17,-33.0153,27.9116,72.01,72.01,80,83,10.71,broken clouds
40,Hermanus,ZA,2022-01-29 20:39:49,-34.4187,19.2345,65.8,65.8,76,3,13.76,clear sky
41,Kavieng,PG,2022-01-29 20:41:18,-2.5744,150.7967,82.18,82.18,75,100,7.36,light rain
42,Camaqua,BR,2022-01-29 20:41:18,-30.8511,-51.8122,75.02,75.02,53,35,9.86,scattered clouds
43,Loa Janan,ID,2022-01-29 20:41:19,-0.583,117.095,72.99,72.99,94,99,0.29,overcast clouds
44,Punta Arenas,CL,2022-01-29 20:40:02,-53.15,-70.9167,53.11,53.71,43,75,24.16,broken clouds
45,Huntsville,US,2022-01-29 20:41:19,34.7304,-86.5861,31.19,38.89,35,0,3.0,clear sky
46,Bluff,NZ,2022-01-29 20:42:19,-46.6,168.3333,58.39,58.39,88,100,6.85,overcast clouds
47,Tautira,PF,2022-01-29 20:42:20,-17.7333,-149.15,80.01,82.42,74,100,14.07,overcast clouds
48,Kismayo,SO,2022-01-29 20:42:20,-0.3582,42.5454,77.47,77.47,78,5,15.48,clear sky
49,Hokitika,NZ,2022-01-29 20:42:21,-42.7167,170.9667,64.09,64.09,62,69,1.54,broken clouds
50,Bossangoa,CF,2022-01-29 20:42:21,6.4926,17.4552,75.25,75.25,21,80,4.07,broken clouds
51,Lebu,CL,2022-01-29 20:42:21,-37.6167,-73.65,64.4,64.4,76,2,10.96,clear sky
52,Omboue,GA,2022-01-29 20:42:22,-1.5746,9.2618,78.6,78.6,86,98,6.15,overcast clouds
53,Rio Branco,BR,2022-01-29 20:42:22,-9.9747,-67.81,81.21,81.21,83,75,3.44,broken clouds
54,Yar-Sale,RU,2022-01-29 20:39:46,66.8333,70.8333,-9.54,-9.54,97,93,8.77,overcast clouds
55,Ribeira Grande,PT,2022-01-29 20:42:23,38.5167,-28.7,59.4,59.4,67,20,5.75,few clouds
56,Tuktoyaktuk,CA,2022-01-29 20:42:23,69.4541,-133.0374,-9.4,-9.4,77,75,14.97,light snow
57,Bambanglipuro,ID,2022-01-29 20:42:23,-7.95,110.2833,77.38,77.38,87,100,3.98,overcast clouds
58,Piacabucu,BR,2022-01-29 20:42:24,-10.4056,-36.4344,77.79,77.79,67,100,4.74,overcast clouds
59,New Norfolk,AU,2022-01-29 20:42:24,-42.7826,147.0587,56.75,60.93,62,23,1.68,few clouds
60,Cidreira,BR,2022-01-29 20:42:25,-30.1811,-50.2056,73.67,73.67,58,56,12.64,broken clouds
61,Tasiilaq,GL,2022-01-29 20:42:25,65.6145,-37.6368,14.16,14.16,76,94,6.64,overcast clouds
62,Mataram,ID,2022-01-29 20:42:26,-8.5833,116.1167,76.01,76.01,86,100,2.28,overcast clouds
63,Nikolskoye,RU,2022-01-29 20:42:26,59.7035,30.7861,23.81,26.87,85,100,14.97,light snow
64,Nanortalik,GL,2022-01-29 20:42:26,60.1432,-45.2371,19.78,19.78,65,100,12.53,light snow
65,Beringovskiy,RU,2022-01-29 20:42:27,63.05,179.3167,-11.65,-11.65,100,97,3.38,overcast clouds
66,Olafsvik,IS,2022-01-29 20:42:27,64.8945,-23.7142,38.62,38.62,67,100,29.35,overcast clouds
67,Clyde River,CA,2022-01-29 20:42:28,70.4692,-68.5914,-5.57,-5.57,59,100,11.5,overcast clouds
68,Klaksvik,FO,2022-01-29 20:42:28,62.2266,-6.589,34.72,34.72,63,60,28.54,broken clouds
69,Milyutinskaya,RU,2022-01-29 20:42:28,48.6279,41.6679,32.43,33.64,94,99,15.55,overcast clouds
70,Torbay,CA,2022-01-29 20:42:29,47.6666,-52.7314,30.88,33.58,91,100,21.85,overcast clouds
71,Rikitea,PF,2022-01-29 20:39:59,-23.1203,-134.9692,77.32,77.32,73,100,10.71,overcast clouds
72,Palora,EC,2022-01-29 20:42:29,-1.7,-77.9333,78.91,82.38,67,100,2.86,overcast clouds
73,Northam,GB,2022-01-29 20:42:29,51.0333,-4.2167,39.34,47.39,88,80,8.39,broken clouds
74,Siilinjarvi,FI,2022-01-29 20:42:30,63.0833,27.6667,24.82,24.82,93,100,17.27,light snow
75,Portland,US,2022-01-29 20:40:41,45.5234,-122.6762,41.9,51.78,57,20,1.99,few clouds
76,Cherskiy,RU,2022-01-29 20:42:30,68.75,161.3,-29.11,-29.11,100,43,1.95,scattered clouds
77,Indramayu,ID,2022-01-29 20:42:31,-6.3264,108.32,79.0,79.0,85,100,4.61,overcast clouds
78,Mont-Dore,NC,2022-01-29 20:42:31,-22.2833,166.5833,75.18,79.0,99,59,6.85,broken clouds
79,Bredasdorp,ZA,2022-01-29 20:42:31,-34.5322,20.0403,65.28,65.52,77,5,8.05,clear sky
80,Fortuna,US,2022-01-29 20:42:32,40.5982,-124.1573,53.94,57.92,76,0,7.0,clear sky
81,Marawi,PH,2022-01-29 20:42:32,7.9986,124.2928,66.65,66.65,94,86,0.76,overcast clouds
82,Payson,US,2022-01-29 20:42:33,40.0444,-111.7321,26.47,44.69,38,0,6.91,clear sky
83,Saldanha,ZA,2022-01-29 20:42:33,-33.0117,17.9442,68.05,68.05,87,0,16.91,clear sky
84,Qaanaaq,GL,2022-01-29 20:42:33,77.484,-69.3632,0.36,0.36,64,100,11.1,overcast clouds
85,Xichang,CN,2022-01-29 20:39:10,27.8964,102.2634,35.98,35.98,76,0,2.01,clear sky
86,Basco,PH,2022-01-29 20:42:34,20.4487,121.9702,74.64,74.64,83,99,25.3,overcast clouds
87,Thompson,CA,2022-01-29 20:40:27,55.7435,-97.8558,-0.24,-0.24,71,40,5.75,scattered clouds
88,Tiksi,RU,2022-01-29 20:38:39,71.6872,128.8694,-8.61,-8.61,99,53,4.79,broken clouds
89,Saint-Louis,SN,2022-01-29 20:42:35,16.3333,-15.0,81.05,81.05,17,100,11.34,overcast clouds
90,Suntar,RU,2022-01-29 20:42:35,62.1444,117.6319,-17.23,-17.23,97,56,4.83,broken clouds
91,Hasaki,JP,2022-01-29 20:43:35,35.7333,140.8333,26.89,27.0,61,65,19.8,broken clouds
92,Yellowknife,CA,2022-01-29 20:43:36,62.456,-114.3525,-7.08,-4.59,83,100,5.75,light snow
93,Nome,US,2022-01-29 20:43:36,64.5011,-165.4064,-9.33,-7.83,59,0,0.0,clear sky
94,Jumla,NP,2022-01-29 20:43:36,29.2747,82.1838,32.02,32.02,49,0,5.12,clear sky
95,Badvel,IN,2022-01-29 20:43:37,14.75,79.05,68.22,68.22,93,2,2.06,clear sky
96,Whitianga,NZ,2022-01-29 20:43:37,-36.8333,175.7,68.45,68.45,61,9,1.81,clear sky
97,Cape Town,ZA,2022-01-29 20:41:48,-33.9258,18.4232,66.09,72.01,71,20,4.0,few clouds
98,Saskylakh,RU,2022-01-29 20:43:38,71.9167,114.0833,-21.84,-21.84,100,99,3.44,overcast clouds
99,Lavrentiya,RU,2022-01-29 20:43:38,65.5833,-171.0,-3.82,-3.82,83,3,4.07,clear sky
100,Solnechnyy,RU,2022-01-29 20:43:39,50.7214,136.6319,-17.57,-17.57,94,61,2.95,broken clouds
101,Axim,GH,2022-01-29 20:43:39,4.8699,-2.2405,80.11,80.11,84,59,7.34,broken clouds
102,Pisco,PE,2022-01-29 20:43:39,-13.7,-76.2167,72.01,75.25,64,0,16.11,clear sky
103,Cap Malheureux,MU,2022-01-29 20:43:40,-19.9842,57.6142,79.47,81.09,75,87,4.0,overcast clouds
104,Ocean City,US,2022-01-29 20:43:40,39.2776,-74.5746,16.99,23.29,89,100,14.0,overcast clouds
105,Constitucion,CL,2022-01-29 20:40:58,-35.3333,-72.4167,65.12,65.12,74,51,10.33,broken clouds
106,Mangrol,IN,2022-01-29 20:43:41,21.1167,70.1167,65.37,65.37,37,2,10.92,clear sky
107,Quatre Cocos,MU,2022-01-29 20:43:41,-20.2078,57.7625,79.09,80.71,71,97,14.32,overcast clouds
108,San Juan De La Maguana,DO,2022-01-29 20:43:42,18.8059,-71.2299,75.33,75.33,46,38,6.33,scattered clouds
109,Muisne,EC,2022-01-29 20:43:42,0.6,-80.0333,82.51,82.51,85,100,3.89,light rain
110,Erenhot,CN,2022-01-29 20:43:42,43.6475,111.9767,7.34,7.34,89,100,5.26,overcast clouds
111,Bethel,US,2022-01-29 20:39:59,41.3712,-73.414,9.84,17.76,66,100,8.01,overcast clouds
112,Kodiak,US,2022-01-29 20:39:49,57.79,-152.4072,33.31,33.31,60,0,25.32,clear sky
113,Belaya Gora,RU,2022-01-29 20:43:43,68.5333,146.4167,-15.84,-15.84,100,100,1.12,overcast clouds
114,Mayo,US,2022-01-29 20:43:43,38.8876,-76.5119,22.95,28.2,42,100,14.0,overcast clouds
115,Jalu,LY,2022-01-29 20:43:44,29.0331,21.5482,52.7,52.7,39,0,10.98,clear sky
116,Buala,SB,2022-01-29 20:43:44,-8.145,159.5921,81.32,81.32,83,100,6.8,light rain
117,Srednekolymsk,RU,2022-01-29 20:43:45,67.45,153.6833,-24.95,-24.95,100,93,4.14,overcast clouds
118,Saint-Augustin,CA,2022-01-29 20:43:45,51.226,-58.6502,7.83,7.83,79,100,15.21,overcast clouds
119,Samana,DO,2022-01-29 20:43:45,19.2056,-69.3369,86.22,87.76,66,20,11.5,few clouds
120,Mehamn,NO,2022-01-29 20:43:46,71.0357,27.8492,19.35,19.35,86,75,11.5,broken clouds
121,Norman Wells,CA,2022-01-29 20:43:46,65.282,-126.8329,-21.96,-21.96,69,20,3.44,few clouds
122,Khatanga,RU,2022-01-29 20:43:47,71.9667,102.5,-4.34,-4.34,99,100,5.53,overcast clouds
123,Nisia Floresta,BR,2022-01-29 20:43:47,-6.0911,-35.2086,81.41,82.78,77,98,7.29,overcast clouds
124,Argudan,RU,2022-01-29 20:43:47,43.4214,43.9158,24.73,29.28,77,95,4.23,overcast clouds
125,Sao Raimundo Nonato,BR,2022-01-29 20:43:48,-9.0153,-42.6994,73.96,73.96,85,75,1.39,broken clouds
126,Pangnirtung,CA,2022-01-29 20:39:50,66.1451,-65.7125,-16.6,-16.6,69,100,2.3,light snow
127,Kahului,US,2022-01-29 20:39:19,20.8947,-156.47,78.06,80.62,57,20,10.36,few clouds
128,Provideniya,RU,2022-01-29 20:43:48,64.3833,-173.3,2.66,2.66,86,4,5.01,clear sky
129,Iqaluit,CA,2022-01-29 20:43:48,63.7506,-68.5145,-7.87,-7.87,59,100,9.22,light snow
130,Carnarvon,AU,2022-01-29 20:43:49,-24.8667,113.6333,77.07,77.07,83,84,10.36,broken clouds
131,Mutoko,ZW,2022-01-29 20:43:49,-17.397,32.2268,64.89,64.89,87,100,7.14,overcast clouds
132,Dikson,RU,2022-01-29 20:43:50,73.5069,80.5464,3.61,3.61,93,99,21.88,overcast clouds
133,Faya,SA,2022-01-29 20:39:46,18.3851,42.4509,50.11,50.52,73,0,5.48,clear sky
134,Guiratinga,BR,2022-01-29 20:43:50,-16.3494,-53.7583,76.68,76.68,88,94,3.98,overcast clouds
135,Mar Del Plata,AR,2022-01-29 20:42:24,-38.0023,-57.5575,72.88,84.22,89,0,18.99,light rain
136,Mount Gambier,AU,2022-01-29 20:44:51,-37.8333,140.7667,62.51,62.51,88,100,6.91,overcast clouds
137,Petropavlovsk-Kamchatskiy,RU,2022-01-29 20:44:51,53.0452,158.6483,17.78,18.19,100,75,4.47,broken clouds
138,Wana,PK,2022-01-29 20:44:51,32.2989,69.5725,45.36,45.36,49,40,4.09,scattered clouds
139,Koosa,EE,2022-01-29 20:44:52,58.5255,27.0795,28.2,30.34,95,100,21.94,snow
140,Lafia,NG,2022-01-29 20:44:52,8.4833,8.5167,80.17,80.17,15,100,6.4,overcast clouds
141,Qasigiannguit,GL,2022-01-29 20:44:53,68.8193,-51.1922,12.45,12.45,72,88,15.1,overcast clouds
142,Vestmannaeyjar,IS,2022-01-29 20:44:53,63.4427,-20.2734,40.37,40.37,67,100,18.05,overcast clouds
143,Shashi,CN,2022-01-29 20:44:53,30.3072,112.2447,33.64,33.64,91,29,1.21,scattered clouds
144,Saint-Philippe,RE,2022-01-29 20:44:54,-21.3585,55.7679,76.55,76.59,85,55,9.06,light rain
145,Hope,US,2022-01-29 20:44:54,33.6671,-93.5916,54.95,57.97,35,0,10.56,clear sky
146,Poronaysk,RU,2022-01-29 20:44:55,49.2167,143.1167,-2.4,-2.4,85,100,6.4,overcast clouds
147,Hay River,CA,2022-01-29 20:44:55,60.8156,-115.7999,-2.24,-2.22,78,75,6.91,light snow
148,Chokurdakh,RU,2022-01-29 20:44:55,70.6333,147.9167,-13.09,-13.09,88,100,1.61,overcast clouds
149,Airai,TL,2022-01-29 20:40:00,-8.9266,125.4092,60.71,60.71,92,100,3.29,overcast clouds
150,Kyra,RU,2022-01-29 20:44:56,49.5776,111.9753,-9.69,-9.69,95,5,4.72,clear sky
151,Henties Bay,NA,2022-01-29 20:44:56,-22.116,14.2845,63.86,63.86,82,46,5.84,scattered clouds
152,Riyadh,SA,2022-01-29 20:43:31,24.6877,46.7219,53.74,53.74,37,0,10.92,clear sky
153,Hamada,JP,2022-01-29 20:44:57,34.8833,132.0833,37.0,37.0,63,100,6.62,overcast clouds
154,Abu Dhabi,AE,2022-01-29 20:44:57,24.4667,54.3667,66.22,66.96,76,0,3.44,clear sky
155,Tabas,IR,2022-01-29 20:44:57,33.5959,56.9244,46.47,46.47,27,1,2.8,clear sky
156,Ambulu,ID,2022-01-29 20:44:58,-8.345,113.6058,75.83,75.83,91,100,1.95,overcast clouds
157,Karlskrona,SE,2022-01-29 20:44:58,56.1616,15.5866,43.25,43.25,67,84,37.09,broken clouds
158,Makakilo City,US,2022-01-29 20:44:59,21.3469,-158.0858,74.95,79.12,57,0,11.5,clear sky
159,Ust-Maya,RU,2022-01-29 20:44:59,60.4167,134.5333,-32.35,-32.35,100,93,0.58,overcast clouds
160,Heihe,CN,2022-01-29 20:44:59,50.2441,127.4902,0.18,0.18,86,12,8.95,few clouds
161,Arlit,NE,2022-01-29 20:45:00,18.7369,7.3853,64.17,64.17,14,1,7.85,clear sky
162,Sola,VU,2022-01-29 20:45:00,-13.8833,167.55,83.21,83.21,77,100,21.65,overcast clouds
163,Tabou,CI,2022-01-29 20:45:01,4.423,-7.3528,80.26,80.26,85,30,6.85,scattered clouds
164,Mandalgovi,MN,2022-01-29 20:45:01,45.7625,106.2708,-0.72,-0.72,90,100,17.11,overcast clouds
165,Qaqortoq,GL,2022-01-29 20:45:01,60.7167,-46.0333,14.5,14.5,91,100,1.66,light snow
166,Launceston,AU,2022-01-29 20:40:14,-41.45,147.1667,54.81,60.62,80,1,1.99,clear sky
167,Nadym,RU,2022-01-29 20:45:02,65.5333,72.5167,-7.47,-7.47,95,99,9.01,overcast clouds
168,Faanui,PF,2022-01-29 20:45:02,-16.4833,-151.75,80.04,80.04,74,18,11.59,light rain
169,Sao Filipe,CV,2022-01-29 20:45:03,14.8961,-24.4956,71.11,71.11,71,100,13.0,overcast clouds
170,Merauke,ID,2022-01-29 20:45:03,-8.4667,140.3333,80.78,80.78,76,100,9.46,overcast clouds
171,Codrington,AU,2022-01-29 20:45:03,-38.2667,141.9667,63.81,63.81,82,80,6.33,broken clouds
172,Vladivostok,RU,2022-01-29 20:45:04,43.1056,131.8735,3.02,3.22,74,20,5.7,few clouds
173,San Cristobal,VE,2022-01-29 20:45:04,7.7669,-72.225,78.98,78.98,43,9,7.54,clear sky
174,Antalaha,MG,2022-01-29 20:45:05,-14.9003,50.2788,73.56,73.56,88,14,5.46,few clouds
175,Katobu,ID,2022-01-29 20:45:05,-4.9408,122.5276,75.96,75.96,89,100,3.29,overcast clouds
176,Char Bhadrasan,BD,2022-01-29 20:45:06,23.3167,90.2167,59.05,59.05,52,0,4.07,clear sky
177,Verkh-Usugli,RU,2022-01-29 20:45:06,52.7,115.1667,-14.69,-14.69,96,10,2.82,clear sky
178,Matveyev Kurgan,RU,2022-01-29 20:45:06,47.5645,38.8695,31.71,31.71,91,100,14.07,overcast clouds
179,Pevek,RU,2022-01-29 20:45:07,69.7008,170.3133,-18.06,-18.06,99,82,3.44,broken clouds
180,Beya,RU,2022-01-29 20:46:07,53.0533,90.9139,0.1,0.1,97,96,0.98,overcast clouds
181,Hirara,JP,2022-01-29 20:46:08,24.8,125.2833,69.39,69.39,80,100,25.3,overcast clouds
182,San Patricio,US,2022-01-29 20:46:08,28.017,-97.5169,58.82,66.61,25,54,5.39,broken clouds
183,Puerto Del Rosario,ES,2022-01-29 20:46:09,28.5004,-13.8627,62.35,64.08,77,0,4.61,haze
184,Emborion,GR,2022-01-29 20:46:09,40.4833,21.55,28.76,31.84,84,37,4.12,scattered clouds
185,Aasiaat,GL,2022-01-29 20:46:10,68.7098,-52.8699,-3.68,-3.68,96,100,8.77,overcast clouds
186,Egvekinot,RU,2022-01-29 20:46:10,66.3167,-179.1667,-6.32,-6.32,65,12,2.59,few clouds
187,Esperance,AU,2022-01-29 20:46:10,-33.8667,121.9,64.24,64.24,79,0,12.26,clear sky
188,Wufeng,CN,2022-01-29 20:46:11,27.45,104.8333,27.57,27.57,91,12,0.76,few clouds
189,French Harbor,HN,2022-01-29 20:46:11,16.35,-86.4333,73.4,75.99,85,100,5.01,overcast clouds
190,Putina,PE,2022-01-29 20:46:12,-15.4667,-69.4333,52.5,52.5,64,100,6.38,overcast clouds
191,Palmer,US,2022-01-29 20:46:12,42.1584,-72.3287,8.85,15.73,79,100,4.0,light snow
192,Ahuimanu,US,2022-01-29 20:46:13,21.4447,-157.8378,76.14,80.31,60,20,4.0,few clouds
193,Bahia Honda,CU,2022-01-29 20:46:13,22.9036,-83.1592,66.7,66.7,54,94,15.86,overcast clouds
194,Lorengau,PG,2022-01-29 20:46:13,-2.0226,147.2712,80.64,80.64,80,99,7.29,overcast clouds
195,Vila Do Maio,CV,2022-01-29 20:46:14,15.1333,-23.2167,70.59,70.59,71,100,19.17,overcast clouds
196,Mazagao,BR,2022-01-29 20:46:14,-0.115,-51.2894,78.85,78.85,96,100,4.03,light rain
197,Aljezur,PT,2022-01-29 20:46:15,37.3191,-8.8033,54.28,54.28,54,53,6.42,broken clouds
198,Yendi,GH,2022-01-29 20:46:15,9.4427,-0.0099,83.77,83.77,15,46,5.93,scattered clouds
199,Narsaq,GL,2022-01-29 20:46:16,60.9167,-46.05,14.22,14.22,96,100,2.48,light snow
200,Samarai,PG,2022-01-29 20:46:16,-10.6167,150.6667,80.17,80.17,78,100,8.23,overcast clouds
201,Myski,RU,2022-01-29 20:46:16,53.709,87.8014,-1.21,-1.21,100,58,2.73,broken clouds
202,Niquero,CU,2022-01-29 20:46:17,20.0431,-77.5828,79.23,79.23,59,1,12.15,clear sky
203,Isangel,VU,2022-01-29 20:46:17,-19.55,169.2667,77.11,77.11,94,100,10.36,heavy intensity rain
204,Sambava,MG,2022-01-29 20:46:18,-14.2667,50.1667,75.79,75.79,90,19,9.19,few clouds
205,Sisimiut,GL,2022-01-29 20:46:18,66.9395,-53.6735,8.02,8.02,85,100,31.68,light snow
206,Bowen,AU,2022-01-29 20:42:13,-20.0167,148.2333,71.82,71.82,79,8,9.98,clear sky
207,Upernavik,GL,2022-01-29 20:46:19,72.7868,-56.1549,1.8,1.8,93,100,8.5,overcast clouds
208,Tarpon Springs,US,2022-01-29 20:46:19,28.1461,-82.7568,43.95,51.21,57,0,3.0,clear sky
209,Sitka,US,2022-01-29 20:46:19,57.0531,-135.33,37.29,37.29,87,100,19.57,light rain and snow
210,Fairbanks,US,2022-01-29 20:46:20,64.8378,-147.7164,-19.86,-14.84,75,0,0.0,clear sky
211,Okato,NZ,2022-01-29 20:46:20,-39.2,173.8833,63.68,63.68,69,7,6.02,clear sky
212,Skibbereen,IE,2022-01-29 20:46:20,51.55,-9.2667,44.4,44.4,84,75,5.41,broken clouds
213,Umba,RU,2022-01-29 20:46:21,66.6871,34.3429,19.76,19.76,95,100,7.34,light snow
214,Coruripe,BR,2022-01-29 20:46:21,-10.1256,-36.1756,78.08,78.08,65,100,4.54,overcast clouds
215,Bereda,ES,2022-01-29 20:46:22,43.2686,-7.5406,35.15,46.92,99,100,2.26,overcast clouds
216,Stillwater,US,2022-01-29 20:46:22,36.1156,-97.0584,64.33,71.85,18,0,1.01,clear sky
217,Rumuruti,KE,2022-01-29 20:46:22,0.267,36.5389,59.18,59.18,81,59,4.68,broken clouds
218,Svetlogorsk,BY,2022-01-29 20:46:23,52.6333,29.7333,22.95,22.95,93,97,12.1,overcast clouds
219,Tuatapere,NZ,2022-01-29 20:43:23,-46.1333,167.6833,57.9,57.9,93,100,5.01,light rain
220,Bogorodskoye,RU,2022-01-29 20:46:23,56.55,37.8833,10.08,10.08,98,98,3.18,overcast clouds
221,Salalah,OM,2022-01-29 20:46:24,17.0151,54.0924,73.49,73.49,68,0,1.14,clear sky
222,Dingle,PH,2022-01-29 20:42:10,10.9995,122.6711,74.53,74.53,91,9,1.7,clear sky
223,Waddan,LY,2022-01-29 20:46:24,29.1614,16.139,48.72,48.72,33,0,7.63,clear sky
224,Praia Da Vitoria,PT,2022-01-29 20:46:25,38.7333,-27.0667,58.75,59.25,88,75,10.09,broken clouds
225,Hamilton,US,2022-01-29 20:45:55,39.1834,-84.5333,20.64,26.65,57,40,1.01,scattered clouds
226,Meadville,US,2022-01-29 20:46:25,41.6414,-80.1515,10.54,17.74,47,0,1.99,clear sky
227,Tomar,PT,2022-01-29 20:43:00,39.602,-8.4092,50.54,57.22,42,0,7.02,clear sky
228,Kaitangata,NZ,2022-01-29 20:48:40,-46.2817,169.8464,56.39,56.39,93,100,4.25,light rain
229,Cairns,AU,2022-01-29 20:48:41,-16.9167,145.7667,75.11,75.15,94,75,9.22,broken clouds
230,Bastia,FR,2022-01-29 20:48:41,42.6667,9.3333,42.13,53.4,78,0,5.75,clear sky
231,Flin Flon,CA,2022-01-29 20:48:42,54.7682,-101.865,4.84,4.84,72,40,2.3,scattered clouds
232,Sterling,US,2022-01-29 20:48:25,39.0062,-77.4286,21.54,27.37,40,20,1.99,few clouds
233,Labuhan,ID,2022-01-29 20:48:42,-6.8844,112.2051,78.21,78.21,86,100,6.31,overcast clouds
234,Marathon,US,2022-01-29 20:48:42,44.9,-89.7668,19.72,24.04,65,75,9.22,broken clouds
235,Fuerte,PH,2022-01-29 20:48:43,17.5381,120.3644,76.6,76.6,87,86,7.11,overcast clouds
236,Fort Nelson,CA,2022-01-29 20:46:55,58.8053,-122.7002,8.19,8.19,85,100,9.22,light snow
237,Balkanabat,TM,2022-01-29 20:48:43,39.5108,54.3671,41.5,41.5,61,6,5.06,clear sky
238,La Ronge,CA,2022-01-29 20:48:44,55.1001,-105.2842,8.82,8.85,66,100,4.61,overcast clouds
239,Manokwari,ID,2022-01-29 20:48:44,-0.8667,134.0833,77.38,77.38,76,99,5.79,overcast clouds
240,Warrington,GB,2022-01-29 20:48:44,53.3925,-2.5802,42.62,46.87,77,75,5.99,broken clouds
241,Mukhen,RU,2022-01-29 20:48:45,48.1,136.1,-13.92,-13.92,97,100,3.76,overcast clouds
242,Nizhyn,UA,2022-01-29 20:48:45,51.048,31.8869,24.96,24.96,93,100,9.64,overcast clouds
243,Motril,ES,2022-01-29 20:48:46,36.7507,-3.5179,50.5,58.05,28,0,9.19,clear sky
244,Zhangzhou,CN,2022-01-29 20:48:46,24.5133,117.6556,57.13,57.13,87,100,1.32,light rain
245,Morondava,MG,2022-01-29 20:48:47,-20.2833,44.2833,81.39,81.39,77,3,11.48,clear sky
246,Aksha,RU,2022-01-29 20:48:47,50.2814,113.2867,-13.29,-13.29,99,29,2.95,scattered clouds
247,Hofn,IS,2022-01-29 20:48:47,64.2539,-15.2082,24.82,24.82,63,0,6.91,clear sky
248,Tongzi,CN,2022-01-29 20:48:48,28.7829,105.0877,38.71,38.71,89,19,2.51,few clouds
249,Laguna,US,2022-01-29 20:44:46,38.421,-121.4238,54.91,67.64,53,0,3.0,clear sky
250,Mgandu,TZ,2022-01-29 20:48:48,-5.95,34.1333,61.45,61.45,98,100,3.27,overcast clouds
251,Goma,CD,2022-01-29 20:48:48,-1.6792,29.2228,64.92,64.92,75,71,3.62,broken clouds
252,Coquimbo,CL,2022-01-29 20:48:49,-29.9533,-71.3436,67.73,67.73,68,20,13.8,few clouds
253,Santo Antonio Do Leverger,BR,2022-01-29 20:48:50,-15.8656,-56.0767,80.98,80.98,95,100,2.46,overcast clouds
254,Lac-Megantic,CA,2022-01-29 20:48:50,45.5834,-70.8823,-1.28,6.82,92,100,11.5,light snow
255,Cornwall,CA,2022-01-29 20:48:44,45.0181,-74.7281,6.04,10.71,43,0,10.36,clear sky
256,Miri,MY,2022-01-29 20:48:50,4.4148,114.0089,78.1,78.94,94,40,0.0,scattered clouds
257,Galesong,ID,2022-01-29 20:48:51,-5.3166,119.3661,73.42,73.42,82,100,5.5,overcast clouds
258,Sarangani,PH,2022-01-29 20:48:51,5.4033,125.4636,80.71,80.71,75,86,7.43,overcast clouds
259,Ales,FR,2022-01-29 20:48:51,44.1333,4.0833,39.24,43.25,73,24,6.46,few clouds
260,Weston,US,2022-01-29 20:44:42,26.1004,-80.3998,56.01,61.02,40,0,1.99,clear sky
261,Vysokogornyy,RU,2022-01-29 20:48:52,50.1167,139.15,-20.43,-20.43,100,93,3.27,overcast clouds
262,Bengkulu,ID,2022-01-29 20:48:52,-3.8004,102.2655,75.88,75.88,91,100,4.25,heavy intensity rain
263,Myitkyina,MM,2022-01-29 20:48:52,25.3833,97.4,49.98,49.98,76,1,2.59,clear sky
264,Avera,US,2022-01-29 20:48:53,33.194,-82.5271,39.9,43.92,22,0,13.87,clear sky
265,Katsuura,JP,2022-01-29 20:47:44,35.1333,140.3,38.1,41.14,83,43,14.03,scattered clouds
266,Husavik,IS,2022-01-29 20:48:53,66.0449,-17.3389,33.71,33.71,77,32,19.26,scattered clouds
267,Bilibino,RU,2022-01-29 20:48:54,68.0546,166.4372,-4.36,-4.36,87,100,2.8,overcast clouds
268,Baruun-Urt,MN,2022-01-29 20:48:54,46.6806,113.2792,-8.36,-8.36,88,16,2.33,few clouds
269,Georgetown,MY,2022-01-29 20:46:59,5.4112,100.3354,76.95,81.9,90,20,1.99,few clouds
270,Warner Robins,US,2022-01-29 20:48:55,32.621,-83.5999,40.44,44.76,20,0,21.85,clear sky
271,Yarmouth,US,2022-01-29 20:48:55,41.7057,-70.2286,17.65,26.96,96,100,37.36,snow
272,Itaqui,BR,2022-01-29 20:48:55,-29.1253,-56.5531,90.45,90.45,19,0,15.7,clear sky
273,Vardo,NO,2022-01-29 20:44:35,70.3705,31.1107,21.31,21.31,78,93,0.96,overcast clouds
274,Mackenzie,CA,2022-01-29 20:48:56,55.2999,-123.1698,28.62,28.62,93,100,11.5,overcast clouds
275,Caborca,MX,2022-01-29 20:49:56,30.5838,-111.101,70.21,70.21,19,0,1.39,clear sky
276,Nkowakowa,ZA,2022-01-29 20:49:57,-23.8878,30.2871,62.65,62.65,87,100,4.21,overcast clouds
277,Mahibadhoo,MV,2022-01-29 20:49:57,3.7833,72.9667,81.55,81.55,69,8,9.86,clear sky
278,Muromtsevo,RU,2022-01-29 20:49:58,56.3724,75.2418,2.89,2.89,89,100,6.49,overcast clouds
279,Baraki Barak,AF,2022-01-29 20:49:58,33.9675,68.9486,14.63,14.63,76,0,3.4,clear sky
280,Rizhao,CN,2022-01-29 20:49:58,35.4275,119.4553,29.32,29.32,44,98,4.97,overcast clouds
281,Aykhal,RU,2022-01-29 20:49:59,66.0,111.5,-20.33,-20.33,99,33,5.26,scattered clouds
282,Borovskoy,KZ,2022-01-29 20:49:59,53.8,64.15,5.16,5.16,94,100,4.7,overcast clouds
283,Port Lincoln,AU,2022-01-29 20:49:59,-34.7333,135.8667,65.14,65.14,88,32,12.95,scattered clouds
284,Freeport,US,2022-01-29 20:50:00,40.6576,-73.5832,13.96,19.98,77,100,7.0,haze
285,Kushchevskaya,RU,2022-01-29 20:50:00,46.5564,39.6386,34.52,34.86,97,100,13.24,overcast clouds
286,Ilulissat,GL,2022-01-29 20:50:01,69.2167,-51.1,6.42,6.42,72,100,15.97,overcast clouds
287,Valparaiso,CL,2022-01-29 20:45:16,-33.0393,-71.6273,67.12,75.43,56,20,13.8,few clouds
288,Namibe,AO,2022-01-29 20:50:01,-15.1961,12.1522,72.28,72.28,76,100,6.69,overcast clouds
289,Chapais,CA,2022-01-29 20:50:02,49.7834,-74.8492,-2.42,-2.42,88,6,2.3,clear sky
290,Iquitos,PE,2022-01-29 20:50:02,-3.7481,-73.2472,91.44,91.44,46,40,10.36,scattered clouds
291,Mirwah,YE,2022-01-29 20:50:03,13.9228,43.9176,63.93,63.93,85,15,1.88,few clouds
292,Santa Rosa,PH,2022-01-29 20:50:03,14.3122,121.1114,76.86,80.11,89,3,2.39,clear sky
293,Raudeberg,NO,2022-01-29 20:50:03,61.9875,5.1352,37.96,39.87,75,100,49.37,overcast clouds
294,Vagur,FO,2022-01-29 20:50:04,61.4732,-6.8119,37.36,37.36,59,49,25.19,scattered clouds
295,Okhotsk,RU,2022-01-29 20:50:04,59.3833,143.3,13.48,13.48,81,100,14.61,overcast clouds
296,Kadirli,TR,2022-01-29 20:50:05,37.3739,36.0961,38.41,38.41,70,100,6.55,overcast clouds
297,Ulaanbaatar,MN,2022-01-29 20:45:40,47.9077,106.8832,-20.07,-20.07,76,0,6.71,clear sky
298,Sun City West,US,2022-01-29 20:50:05,33.662,-112.3413,67.19,72.84,16,0,3.0,clear sky
299,Beinamar,TD,2022-01-29 20:50:06,8.6698,15.3813,75.72,75.72,15,4,8.63,clear sky
300,Wajid,SO,2022-01-29 20:50:06,3.8093,43.2471,78.21,78.21,26,9,12.71,clear sky
301,Turukhansk,RU,2022-01-29 20:50:06,65.8167,87.9833,2.05,2.05,95,100,10.02,overcast clouds
302,Aripuana,BR,2022-01-29 20:48:22,-9.1667,-60.6333,72.32,72.32,99,100,2.82,overcast clouds
303,Cayenne,GF,2022-01-29 20:50:07,4.9333,-52.3333,77.04,80.1,76,100,4.61,overcast clouds
304,Cabedelo,BR,2022-01-29 20:49:32,-6.9811,-34.8339,81.27,81.27,78,62,9.06,broken clouds
305,Pakxe,LA,2022-01-29 20:50:07,15.1167,105.7833,75.61,75.61,54,76,2.75,broken clouds
306,Saint George,US,2022-01-29 20:49:01,37.1041,-113.5841,48.79,64.87,17,0,1.99,clear sky
307,Imeni Poliny Osipenko,RU,2022-01-29 20:50:08,52.4201,136.4853,-15.38,-15.38,99,100,3.27,overcast clouds
308,Nouakchott,MR,2022-01-29 20:50:08,18.0858,-15.9785,69.73,69.73,63,100,15.3,overcast clouds
309,Vila Franca Do Campo,PT,2022-01-29 20:45:28,37.7167,-25.4333,57.61,59.2,74,58,8.97,broken clouds
310,Comodoro Rivadavia,AR,2022-01-29 20:50:09,-45.8667,-67.5,91.26,91.26,7,0,24.16,clear sky
311,Durusu,TR,2022-01-29 20:50:09,41.3053,28.6767,33.78,40.14,83,82,4.0,broken clouds
312,Cacu,BR,2022-01-29 20:50:10,-18.5567,-51.1308,75.25,75.25,87,100,5.14,overcast clouds
313,Nishihara,JP,2022-01-29 20:50:10,26.1842,127.7558,59.68,61.88,94,100,9.22,overcast clouds
314,Trapani,IT,2022-01-29 20:47:58,37.8333,12.6667,42.24,51.98,66,20,9.22,few clouds
315,Ara,IN,2022-01-29 20:50:11,25.5667,84.6667,46.29,46.29,71,0,7.49,clear sky
316,Kajaani,FI,2022-01-29 20:50:11,64.2273,27.7285,24.85,24.85,93,100,13.8,snow
317,Denpasar,ID,2022-01-29 20:47:49,-8.65,115.2167,77.72,78.46,94,75,4.61,broken clouds
318,Naze,JP,2022-01-29 20:50:12,28.3667,129.4833,56.79,56.79,78,100,13.96,overcast clouds
319,Okakarara,NA,2022-01-29 20:50:12,-20.5833,17.4333,68.05,68.05,80,100,7.63,moderate rain
320,Victoria,HK,2022-01-29 20:48:21,22.2855,114.1577,53.56,60.24,86,100,1.01,overcast clouds
321,Kahramanmaras,TR,2022-01-29 20:50:12,38.0,37.0,12.33,12.33,97,100,1.79,overcast clouds
322,Acajutla,SV,2022-01-29 20:50:41,13.5928,-89.8275,88.81,88.81,54,28,9.19,scattered clouds
323,Rocha,UY,2022-01-29 20:51:13,-34.4833,-54.3333,74.93,74.93,59,8,12.17,clear sky
324,Bagdarin,RU,2022-01-29 20:51:13,54.4333,113.6,-15.7,-15.7,96,9,3.98,clear sky
325,Havoysund,NO,2022-01-29 20:51:14,70.9963,24.6622,18.48,18.48,78,96,17.43,light snow
326,Salinopolis,BR,2022-01-29 20:51:14,-0.6136,-47.3561,75.4,75.4,90,100,5.86,moderate rain
327,Severnyy,RU,2022-01-29 20:51:14,50.677,36.5532,30.24,30.24,100,100,11.18,snow
328,Pokhara,NP,2022-01-29 20:51:15,28.2333,83.9833,45.97,45.97,71,9,3.74,clear sky
329,Spokane,US,2022-01-29 20:50:59,47.6166,-117.3677,25.21,31.41,76,100,1.01,overcast clouds
330,Goderich,CA,2022-01-29 20:48:57,43.7501,-81.7165,13.91,16.92,73,89,5.75,overcast clouds
331,Meulaboh,ID,2022-01-29 20:51:15,4.1363,96.1285,77.54,77.54,87,78,2.89,broken clouds
332,Ponta Do Sol,PT,2022-01-29 20:51:16,32.6667,-17.1,60.12,65.03,68,25,5.06,scattered clouds
333,Tornio,FI,2022-01-29 20:51:16,65.8481,24.1466,23.02,23.02,93,100,12.35,overcast clouds
334,Broome,US,2022-01-29 20:48:23,42.2506,-75.833,7.65,14.0,59,0,8.99,clear sky
335,Boa Vista,BR,2022-01-29 20:51:17,2.8197,-60.6733,89.58,89.58,43,75,9.22,light rain
336,Charters Towers,AU,2022-01-29 20:51:17,-20.1,146.2667,72.81,72.81,83,0,7.09,clear sky
337,Longyearbyen,SJ,2022-01-29 20:50:10,78.2186,15.6401,8.44,8.44,66,0,14.97,clear sky
338,Snasa,NO,2022-01-29 20:51:18,64.2457,12.3778,34.93,34.93,99,100,4.12,snow
339,Srivardhan,IN,2022-01-29 20:51:18,18.0333,73.0167,69.91,69.91,54,5,4.0,clear sky
340,Bathsheba,BB,2022-01-29 20:51:18,13.2167,-59.5167,81.21,81.21,65,40,17.27,scattered clouds
341,Luderitz,NA,2022-01-29 20:51:19,-26.6481,15.1594,67.57,67.57,80,73,8.81,broken clouds
342,Kibungo,RW,2022-01-29 20:51:19,-2.1597,30.5427,68.92,68.92,74,85,1.25,overcast clouds
343,Bambous Virieux,MU,2022-01-29 20:51:20,-20.3428,57.7575,79.21,80.85,78,40,9.22,scattered clouds
344,Cabra,ES,2022-01-29 20:51:20,37.4725,-4.4421,43.9,45.84,36,0,3.62,clear sky
345,Cabo San Lucas,MX,2022-01-29 20:51:20,22.8909,-109.9124,74.14,79.61,56,23,5.99,few clouds
346,Atherton,GB,2022-01-29 20:51:21,53.5237,-2.4935,41.49,46.29,75,30,4.0,scattered clouds
347,Porto Novo,BJ,2022-01-29 20:51:21,6.4965,2.6036,84.02,84.02,68,32,3.56,scattered clouds
348,Plettenberg Bay,ZA,2022-01-29 20:51:21,-34.0527,23.3716,64.99,64.99,90,8,4.05,clear sky
349,Yavaros,MX,2022-01-29 20:51:22,26.7,-109.5167,77.45,77.45,38,0,8.57,clear sky
350,Kaiyuan,CN,2022-01-29 20:51:22,23.6977,103.3037,46.85,46.85,92,0,2.93,clear sky
351,Caravelas,BR,2022-01-29 20:51:23,-17.7125,-39.2481,79.68,79.68,80,0,10.56,clear sky
352,Eyl,SO,2022-01-29 20:51:23,7.9803,49.8164,74.86,74.86,68,74,21.0,broken clouds
353,Bonavista,CA,2022-01-29 20:47:40,48.6499,-53.1147,30.2,34.12,87,100,22.75,overcast clouds
354,Santa Isabel Do Rio Negro,BR,2022-01-29 20:51:24,-0.4139,-65.0192,81.3,81.3,84,100,1.66,light rain
355,Yerbogachen,RU,2022-01-29 20:51:24,61.2767,108.0108,-21.59,-21.59,100,85,3.29,overcast clouds
356,Peniche,PT,2022-01-29 20:51:24,39.3558,-9.3811,51.08,58.73,50,6,9.42,clear sky
357,Sayat,TM,2022-01-29 20:51:25,38.7839,63.8803,33.67,33.67,55,93,9.28,overcast clouds
358,Galle,LK,2022-01-29 20:51:25,6.0367,80.217,78.33,78.33,85,100,6.46,overcast clouds
359,Trofors,NO,2022-01-29 20:51:25,65.5333,13.4063,30.02,36.75,96,100,4.59,overcast clouds
360,Batagay-Alyta,RU,2022-01-29 20:51:26,67.8006,130.4114,-19.93,-19.93,95,66,5.06,broken clouds
361,Churapcha,RU,2022-01-29 20:51:26,62.0025,132.4325,-38.65,-38.65,100,80,2.73,broken clouds
362,Kalvarija,LT,2022-01-29 20:51:27,54.4,23.2333,34.54,34.54,96,100,24.74,light snow
363,Buique,BR,2022-01-29 20:51:27,-8.6231,-37.1558,67.01,67.01,81,100,2.75,overcast clouds
364,Okha,RU,2022-01-29 20:51:27,53.5739,142.9478,-15.23,-15.23,95,87,8.61,overcast clouds
365,Harper,LR,2022-01-29 20:47:01,4.375,-7.7169,79.97,79.97,86,61,6.2,broken clouds
366,Garowe,SO,2022-01-29 20:51:28,8.4054,48.4845,67.66,67.66,75,91,17.72,overcast clouds
367,Birjand,IR,2022-01-29 20:51:28,32.8663,59.2211,34.27,34.27,40,0,4.61,clear sky
368,Port Hedland,AU,2022-01-29 20:51:18,-20.3167,118.5667,82.45,82.45,74,40,2.3,scattered clouds
369,Kruisfontein,ZA,2022-01-29 20:52:29,-34.0033,24.7314,64.89,64.89,90,0,4.68,clear sky
370,Benito Juarez,MX,2022-01-29 20:52:29,19.385,-99.165,65.84,71.42,35,20,4.0,few clouds
371,Luena,AO,2022-01-29 20:52:29,-11.7833,19.9167,62.67,62.67,95,100,3.18,overcast clouds
372,Touros,BR,2022-01-29 20:48:51,-5.1989,-35.4608,81.5,81.5,77,95,10.31,overcast clouds
373,Rancho Palos Verdes,US,2022-01-29 20:52:30,33.7445,-118.387,61.72,70.0,22,100,1.01,overcast clouds
374,Yamada,JP,2022-01-29 20:52:30,39.4667,141.95,25.83,25.83,54,2,6.78,clear sky
375,Kavaratti,IN,2022-01-29 20:52:31,10.5669,72.642,80.51,80.51,74,75,6.06,broken clouds
376,Huarmey,PE,2022-01-29 20:52:31,-10.0681,-78.1522,74.57,74.57,74,27,10.47,scattered clouds
377,Brokopondo,SR,2022-01-29 20:52:31,4.75,-55.1667,81.39,81.39,70,78,8.52,broken clouds
378,Ewa Beach,US,2022-01-29 20:52:32,21.3156,-158.0072,76.37,80.55,56,0,10.0,clear sky
379,Kurchum,KZ,2022-01-29 20:52:32,48.5722,83.6542,-6.09,-6.09,87,100,3.31,overcast clouds
380,Beberibe,BR,2022-01-29 20:52:33,-4.1797,-38.1306,84.24,84.24,79,92,7.74,overcast clouds
381,Rurrenabaque,BO,2022-01-29 20:52:33,-14.4413,-67.5278,78.62,78.62,93,63,0.98,broken clouds
382,Kolpny,RU,2022-01-29 20:52:33,52.2282,37.0368,28.26,28.26,96,100,10.04,light snow
383,Dakar,SN,2022-01-29 20:48:14,14.6937,-17.4441,70.68,71.73,73,0,13.8,clear sky
384,El Ocotito,MX,2022-01-29 20:52:34,17.25,-99.5667,88.41,88.41,32,47,6.06,scattered clouds
385,Mastic Beach,US,2022-01-29 20:52:34,40.7668,-72.8521,12.88,18.19,89,100,7.0,haze
386,Gorele,TR,2022-01-29 20:52:34,41.0308,39.0031,42.24,42.24,66,100,6.53,overcast clouds
387,Iberia,US,2022-01-29 20:50:52,29.9502,-91.7507,52.99,56.05,18,0,3.44,clear sky
388,Hithadhoo,MV,2022-01-29 20:52:35,-0.6,73.0833,80.87,80.87,67,89,3.11,overcast clouds
389,Mersing,MY,2022-01-29 20:52:35,2.4312,103.8405,73.31,73.31,94,58,3.44,broken clouds
390,Kirakira,SB,2022-01-29 20:52:36,-10.4544,161.9205,81.48,81.48,84,100,8.28,light rain
391,San Carlos De Bariloche,AR,2022-01-29 20:52:36,-41.1456,-71.3082,72.25,75.43,33,0,25.32,clear sky
392,Rundu,NA,2022-01-29 20:52:37,-17.9333,19.7667,67.84,67.84,93,99,7.58,light rain
393,Filingue,NE,2022-01-29 20:52:37,14.3521,3.3168,72.18,72.18,13,35,11.56,scattered clouds
394,Camara De Lobos,PT,2022-01-29 20:52:37,32.6333,-16.9667,60.12,65.03,81,40,4.0,scattered clouds
395,Palafrugell,ES,2022-01-29 20:52:38,41.9174,3.1631,41.83,47.14,73,0,4.61,clear sky
396,Mayumba,GA,2022-01-29 20:52:38,-3.432,10.6554,77.54,77.54,90,72,3.2,broken clouds
397,Timberlake,US,2022-01-29 20:52:38,37.3207,-79.2575,24.8,31.64,33,0,4.0,clear sky
398,Blackwater,AU,2022-01-29 20:52:39,-23.5833,148.8833,74.21,74.21,67,9,4.9,clear sky
399,Souillac,MU,2022-01-29 20:52:39,-20.5167,57.5167,79.36,80.98,78,40,9.22,scattered clouds
400,Severobaykalsk,RU,2022-01-29 20:52:40,55.65,109.3167,-11.45,-11.45,92,43,4.52,scattered clouds
401,Potiskum,NG,2022-01-29 20:52:40,11.7091,11.0694,64.67,64.67,17,77,12.01,broken clouds
402,Mandan,US,2022-01-29 20:52:40,46.8267,-100.8896,33.58,34.99,70,0,19.57,clear sky
403,Celestun,MX,2022-01-29 20:52:41,20.8667,-90.4,71.19,71.19,54,76,17.58,broken clouds
404,Knysna,ZA,2022-01-29 20:52:41,-34.0363,23.0471,64.78,64.78,93,5,4.72,clear sky
405,Apatity,RU,2022-01-29 20:52:42,67.5641,33.4031,4.37,4.37,96,89,3.04,overcast clouds
406,Fonte Boa,BR,2022-01-29 20:52:42,-2.4959,-66.2662,79.43,79.43,94,100,1.74,overcast clouds
407,Kieta,PG,2022-01-29 20:52:42,-6.2167,155.6333,79.07,79.07,88,100,8.63,light rain
408,Rudnaya Pristan,RU,2022-01-29 20:52:43,44.3614,135.8116,6.33,6.33,60,4,13.13,clear sky
409,Talnakh,RU,2022-01-29 20:52:43,69.4865,88.3972,-0.89,-0.89,97,100,9.53,overcast clouds
410,Whitecourt,CA,2022-01-29 20:52:44,54.1502,-115.6855,34.84,34.84,55,75,3.44,broken clouds
411,Tutoia,BR,2022-01-29 20:52:44,-2.7619,-42.2744,84.18,84.18,80,100,5.57,moderate rain
412,Biak,ID,2022-01-29 20:52:44,-0.9131,122.8766,76.35,76.35,79,98,3.31,overcast clouds
413,Andenes,NO,2022-01-29 20:52:45,69.3143,16.1194,26.58,26.58,63,100,18.41,overcast clouds
414,Gorontalo,ID,2022-01-29 20:52:45,0.5412,123.0595,74.03,74.03,94,99,3.33,overcast clouds
415,Uyar,RU,2022-01-29 20:53:46,55.81,94.3153,-12.57,-12.57,98,53,4.12,broken clouds
416,Lazaro Cardenas,MX,2022-01-29 20:53:46,17.9583,-102.2,83.53,83.53,58,0,9.26,clear sky
417,Vila Velha,BR,2022-01-29 20:53:39,-20.3297,-40.2925,80.94,84.15,83,20,10.0,few clouds
418,Vila,PT,2022-01-29 20:53:47,42.0304,-8.1588,30.74,43.93,40,5,4.56,clear sky
419,Nichinan,JP,2022-01-29 20:53:47,31.6,131.3667,43.75,43.75,75,100,7.67,overcast clouds
420,Tocopilla,CL,2022-01-29 20:53:47,-22.092,-70.1979,68.81,68.81,72,5,5.28,clear sky
421,Port-Gentil,GA,2022-01-29 20:49:10,-0.7193,8.7815,80.56,80.56,89,40,5.75,scattered clouds
422,Port Hardy,CA,2022-01-29 20:53:16,50.6996,-127.4199,42.98,46.76,87,100,20.71,light rain
423,Nemuro,JP,2022-01-29 20:53:48,43.3236,145.575,17.29,17.29,76,57,17.16,broken clouds
424,Soyo,AO,2022-01-29 20:51:39,-6.1349,12.3689,78.71,78.71,89,97,4.74,light rain
425,Horsham,GB,2022-01-29 20:53:48,51.064,-0.3272,42.73,47.91,64,0,8.05,clear sky
426,Atbasar,KZ,2022-01-29 20:53:49,51.8,68.3333,11.12,11.12,96,97,4.81,overcast clouds
427,Bayir,TR,2022-01-29 20:53:49,37.2687,28.2167,43.32,43.32,86,100,6.11,overcast clouds
428,Sweetwater,US,2022-01-29 20:53:40,25.7634,-80.3731,57.97,61.02,41,53,1.01,broken clouds
429,Richards Bay,ZA,2022-01-29 20:53:50,-28.783,32.0377,71.89,71.89,83,61,3.22,broken clouds
430,Puerto Carreno,CO,2022-01-29 20:53:50,6.189,-67.4859,93.18,93.18,36,40,13.8,scattered clouds
431,Maniitsoq,GL,2022-01-29 20:53:50,65.4167,-52.9,8.65,8.65,76,100,28.45,light snow
432,Palana,RU,2022-01-29 20:51:10,59.1167,159.9667,20.62,20.62,75,59,11.97,broken clouds
433,Sangod,IN,2022-01-29 20:53:51,24.9167,76.2833,56.8,56.8,42,0,2.46,clear sky
434,Lodja,CD,2022-01-29 20:53:51,-3.4833,23.4333,73.02,73.02,74,76,0.67,broken clouds
435,Porechye-Rybnoye,RU,2022-01-29 20:53:52,57.098,39.3835,19.31,19.31,100,87,3.76,overcast clouds
436,Leningradskiy,RU,2022-01-29 20:53:52,69.3833,178.4167,-9.83,-9.83,90,55,5.03,broken clouds
437,Saint Augustine,US,2022-01-29 20:53:52,29.8947,-81.3145,44.02,50.02,33,0,11.5,clear sky
438,Alangulam,IN,2022-01-29 20:53:53,8.8667,77.5,75.61,75.61,82,99,5.5,overcast clouds
439,Zhigansk,RU,2022-01-29 20:53:53,66.7697,123.3711,-29.88,-29.88,100,100,1.68,overcast clouds
440,Gandorhun,SL,2022-01-29 20:53:53,7.5,-11.8333,77.41,77.41,81,100,4.05,overcast clouds
441,Stornoway,GB,2022-01-29 20:53:54,58.2093,-6.3865,39.16,41.04,78,75,3.0,broken clouds
442,Batticaloa,LK,2022-01-29 20:53:54,7.7102,81.6924,77.45,77.45,82,19,1.14,few clouds
443,Warri,NG,2022-01-29 20:53:55,5.5167,5.75,76.14,76.14,54,78,4.36,broken clouds
444,Ust-Uda,RU,2022-01-29 20:53:55,54.1742,103.0304,-22.97,-22.97,100,97,0.49,overcast clouds
445,Biu,NG,2022-01-29 20:53:55,10.6129,12.1946,64.96,64.96,24,77,10.2,broken clouds
446,Kimbe,PG,2022-01-29 20:53:56,-5.5502,150.1429,77.22,77.22,91,100,2.21,light rain
447,Niimi,JP,2022-01-29 20:53:56,34.9833,133.4667,31.35,31.35,80,100,2.51,overcast clouds
448,Upington,ZA,2022-01-29 20:53:57,-28.4478,21.2561,82.78,82.78,39,99,12.66,overcast clouds
449,La Plaine,DM,2022-01-29 20:53:57,15.3333,-61.25,80.24,84.49,48,20,4.61,few clouds
450,Atar,MR,2022-01-29 20:53:57,20.5169,-13.0499,76.19,76.19,20,100,3.2,overcast clouds
451,Mandla,IN,2022-01-29 20:53:58,22.6,80.3833,51.98,51.98,35,0,0.18,clear sky
452,Shamary,RU,2022-01-29 20:53:58,57.3434,58.2199,5.76,5.76,97,100,2.62,overcast clouds
453,Lockhart,US,2022-01-29 20:53:59,28.6194,-81.4426,45.73,52.34,35,0,4.0,clear sky
454,Daru,PG,2022-01-29 20:53:59,-9.0763,143.2092,78.44,78.44,85,100,10.76,heavy intensity rain
455,Maragogi,BR,2022-01-29 20:51:45,-9.0122,-35.2225,76.41,76.41,73,100,6.02,overcast clouds
456,Catuday,PH,2022-01-29 20:53:59,16.2923,119.8062,78.19,78.19,80,60,11.74,broken clouds
457,Kidal,ML,2022-01-29 20:54:00,18.4411,1.4078,69.53,69.53,11,19,11.07,few clouds
458,Japura,ID,2022-01-29 20:54:00,-0.3167,102.35,75.65,75.65,86,99,1.9,overcast clouds
459,Saint-Leu,RE,2022-01-29 20:54:01,-21.15,55.2833,76.03,76.06,81,63,7.16,light rain
460,Birao,CF,2022-01-29 20:54:01,10.2849,22.7882,67.68,67.68,16,52,6.4,broken clouds
461,Parauna,BR,2022-01-29 20:55:01,-16.9478,-50.4486,74.19,74.19,82,96,9.31,moderate rain
462,Emba,KZ,2022-01-29 20:55:02,48.8264,58.1442,13.77,13.77,96,97,9.17,overcast clouds
463,Yoichi,JP,2022-01-29 20:55:02,43.2039,140.7703,15.62,15.78,69,100,21.39,light snow
464,Kamenka,RU,2022-01-29 20:55:03,51.3223,42.7678,31.75,31.75,98,100,6.71,light snow
465,Zwedru,LR,2022-01-29 20:55:03,6.0667,-8.1281,79.07,79.07,69,79,4.9,broken clouds
466,Sumbe,AO,2022-01-29 20:55:03,-11.2061,13.8437,78.26,78.26,87,100,7.67,overcast clouds
467,Pathein,MM,2022-01-29 20:55:04,16.7833,94.7333,63.86,63.86,69,85,7.43,overcast clouds
468,Nahan,IN,2022-01-29 20:55:04,30.55,77.3,47.35,47.35,67,0,2.86,clear sky
469,Warrnambool,AU,2022-01-29 20:55:05,-38.3833,142.4833,65.8,65.8,90,96,7.36,overcast clouds
470,Rognan,NO,2022-01-29 20:55:05,67.0953,15.3878,28.54,29.05,90,100,5.64,overcast clouds
471,Praia,CV,2022-01-29 20:51:40,14.9215,-23.5087,70.34,70.34,64,75,18.41,broken clouds
472,Martorell,ES,2022-01-29 20:55:06,41.474,1.9306,43.34,54.25,53,0,5.01,clear sky
473,Mitsamiouli,KM,2022-01-29 20:55:06,-11.3847,43.2844,80.89,80.89,73,69,4.5,broken clouds
474,Safaga,EG,2022-01-29 20:54:15,26.7292,33.9365,57.15,57.15,51,1,11.7,clear sky
475,Acapulco,MX,2022-01-29 20:55:06,16.8634,-99.8901,85.26,85.26,57,12,10.25,few clouds
476,Yashalta,RU,2022-01-29 20:55:07,46.3395,42.2762,34.05,34.05,92,100,13.71,overcast clouds
477,Nerchinskiy Zavod,RU,2022-01-29 20:55:07,51.3088,119.61,-22.41,-22.41,100,45,2.35,scattered clouds
478,Rawah,IQ,2022-01-29 20:55:07,34.4816,41.9093,46.22,46.22,64,3,7.02,clear sky
479,Korhogo,CI,2022-01-29 20:55:08,9.45,-5.6333,77.34,77.34,17,68,4.16,broken clouds
480,Ust-Barguzin,RU,2022-01-29 20:55:08,53.45,108.9833,-11.42,-11.42,98,98,3.62,overcast clouds
481,Arkhangelsk,RU,2022-01-29 20:55:09,64.5401,40.5433,17.71,17.71,86,100,11.18,light snow
482,Tateyama,JP,2022-01-29 20:55:09,34.9833,139.8667,39.02,41.05,81,69,14.12,broken clouds
483,Clonakilty,IE,2022-01-29 20:55:10,51.6231,-8.8706,38.08,43.81,82,78,5.3,broken clouds
484,Lagoa,PT,2022-01-29 20:55:10,39.05,-27.9833,58.5,58.5,73,77,13.76,broken clouds
485,Havre-Saint-Pierre,CA,2022-01-29 20:52:15,50.2334,-63.5986,5.36,7.39,61,100,17.27,overcast clouds
486,Tilichiki,RU,2022-01-29 20:55:10,60.4667,166.1,18.82,18.82,71,100,14.54,overcast clouds
487,Wanning,CN,2022-01-29 20:55:11,18.8003,110.3967,62.6,62.6,87,100,9.42,overcast clouds
488,Calca,PE,2022-01-29 20:55:11,-13.3333,-71.95,63.75,63.75,81,98,5.55,overcast clouds
489,Twentynine Palms,US,2022-01-29 20:55:12,34.1356,-116.0542,55.54,61.92,13,100,1.01,overcast clouds
490,Ambilobe,MG,2022-01-29 20:55:12,-13.2,49.05,74.1,74.1,95,65,1.5,light rain
491,Viedma,AR,2022-01-29 20:55:12,-40.8135,-62.9967,92.82,92.82,26,31,6.02,scattered clouds
492,Aurillac,FR,2022-01-29 20:55:13,44.9167,2.45,24.75,36.48,88,0,2.3,clear sky
493,Lima,PE,2022-01-29 20:54:39,-12.0432,-77.0282,73.65,77.9,63,0,7.0,clear sky
494,Buraydah,SA,2022-01-29 20:55:13,26.326,43.975,52.25,52.25,35,0,17.45,clear sky
495,Oppdal,NO,2022-01-29 20:55:14,62.5943,9.6912,26.44,26.44,91,71,26.53,broken clouds
496,Hambantota,LK,2022-01-29 20:55:14,6.1241,81.1185,77.95,77.95,82,73,6.8,broken clouds
497,Luganville,VU,2022-01-29 20:55:15,-15.5333,167.1667,79.68,79.68,88,100,8.9,moderate rain
498,Banikoara,BJ,2022-01-29 20:55:15,11.2985,2.4386,75.7,75.7,15,38,5.84,scattered clouds
499,Ahipara,NZ,2022-01-29 20:50:25,-35.1667,173.1667,68.52,68.52,63,65,8.95,broken clouds
500,Tambura,SS,2022-01-29 20:55:15,5.6,27.4667,69.91,69.91,22,4,5.03,clear sky
501,Kapoeta,SS,2022-01-29 20:55:16,4.7717,33.5903,83.48,83.48,25,2,3.15,clear sky
502,Shache,CN,2022-01-29 20:55:16,38.4167,77.2406,25.72,25.72,44,12,2.71,few clouds
503,Broken Hill,AU,2022-01-29 20:51:00,-31.95,141.4333,73.11,73.11,64,15,6.91,few clouds
504,Doka,SD,2022-01-29 20:55:17,13.5167,35.7667,74.05,74.05,35,7,12.41,clear sky
505,Ballina,AU,2022-01-29 20:55:17,-28.8667,153.5667,68.18,69.84,96,75,2.3,broken clouds
506,Davila,PH,2022-01-29 20:50:44,18.4726,120.5763,74.41,74.41,94,100,12.08,moderate rain
507,Salvador,SV,2022-01-29 20:56:18,13.8333,-88.9167,82.06,82.06,33,67,9.31,broken clouds
508,Chicama,PE,2022-01-29 20:56:18,-7.8447,-79.1469,70.34,70.34,62,81,10.83,broken clouds
509,Xining,CN,2022-01-29 20:56:18,36.6167,101.7667,10.31,10.31,61,13,1.81,few clouds
510,Harlingen,US,2022-01-29 20:56:19,26.1906,-97.6961,60.89,66.25,43,29,5.75,scattered clouds
511,Kastamonu,TR,2022-01-29 20:56:19,41.5,33.6667,19.24,19.24,95,75,0.87,broken clouds
512,Pangody,RU,2022-01-29 20:56:20,65.85,74.4859,-9.72,-9.72,96,99,8.37,overcast clouds
513,Guerrero Negro,MX,2022-01-29 20:54:04,27.9769,-114.0611,71.19,71.19,29,8,12.35,clear sky
514,Milkovo,RU,2022-01-29 20:56:20,54.7167,158.6167,19.63,19.63,97,100,1.7,snow
515,Villers-Les-Nancy,FR,2022-01-29 20:56:21,48.671,6.1508,38.08,44.65,92,100,9.22,light intensity drizzle
516,Adrar,MR,2022-01-29 20:56:21,20.5022,-10.0711,78.67,78.67,11,100,10.65,overcast clouds
517,Villa Rica,US,2022-01-29 20:52:52,33.7321,-84.9191,32.05,39.22,35,2,9.78,clear sky
518,Hohhot,CN,2022-01-29 20:56:22,40.8106,111.6522,14.29,14.29,62,0,4.47,clear sky
519,Sibolga,ID,2022-01-29 20:56:22,1.7427,98.7792,74.46,74.46,91,75,2.21,moderate rain
520,Bandarbeyla,SO,2022-01-29 20:56:22,9.4942,50.8122,75.76,75.76,65,94,21.99,overcast clouds
521,Koshurnikovo,RU,2022-01-29 20:56:23,54.1667,93.3,-18.71,-18.71,100,74,3.98,broken clouds
522,Rosamorada,MX,2022-01-29 20:56:23,22.1222,-105.2058,92.1,92.1,22,0,9.1,clear sky
523,Mogadishu,SO,2022-01-29 20:56:23,2.0371,45.3438,77.25,77.25,80,28,22.41,scattered clouds
524,Sur,OM,2022-01-29 20:56:24,22.5667,59.5289,71.15,71.15,54,3,5.46,clear sky
525,Mumford,GH,2022-01-29 20:56:24,5.2618,-0.759,79.5,79.5,86,38,4.81,scattered clouds
526,Taltal,CL,2022-01-29 20:56:24,-25.4,-70.4833,68.79,68.79,69,8,7.67,clear sky
527,Manjacaze,MZ,2022-01-29 20:56:25,-24.7117,33.8828,72.72,72.72,85,100,4.09,overcast clouds
528,Dorolt,RO,2022-01-29 20:56:25,47.85,22.8167,30.72,34.03,81,100,12.66,light snow
529,Poum,NC,2022-01-29 20:56:26,-20.2333,164.0167,80.92,80.92,79,39,9.19,scattered clouds
530,Hobyo,SO,2022-01-29 20:56:26,5.3505,48.5268,76.84,76.84,78,17,23.15,few clouds
531,Dryden,CA,2022-01-29 20:56:26,49.7833,-92.7503,10.69,10.69,79,100,4.61,overcast clouds
532,Korla,CN,2022-01-29 20:56:27,41.7597,86.1469,23.5,23.5,54,100,5.03,overcast clouds
533,Natal,BR,2022-01-29 20:56:27,-5.795,-35.2094,81.25,82.62,74,75,10.36,broken clouds
534,Tvoroyri,FO,2022-01-29 20:56:28,61.5556,-6.8111,34.99,34.99,59,45,24.11,scattered clouds
535,Visakhapatnam,IN,2022-01-29 20:56:28,17.69,83.2093,64.29,64.29,82,20,2.3,mist
536,Nordfjordeid,NO,2022-01-29 20:56:28,61.9063,5.9915,37.08,40.95,97,100,16.02,overcast clouds
537,Key West,US,2022-01-29 20:52:09,24.5557,-81.7826,59.0,66.2,56,100,20.71,overcast clouds
538,Asau,RO,2022-01-29 20:56:29,46.4333,26.4,29.32,29.32,88,80,7.85,broken clouds
539,San Lawrenz,MT,2022-01-29 20:56:29,36.0553,14.204,49.41,50.86,55,3,5.99,clear sky
540,Le Port,RE,2022-01-29 20:56:30,-20.9373,55.2919,76.96,77.0,83,88,2.08,overcast clouds
541,Shulan,CN,2022-01-29 20:56:30,44.4167,126.95,-1.16,-1.16,97,46,6.55,scattered clouds
542,Hanzhong,CN,2022-01-29 20:56:30,33.0728,107.0303,35.06,35.06,77,93,2.73,overcast clouds
543,Flinders,AU,2022-01-29 20:56:31,-34.5833,150.8552,70.25,74.37,85,100,5.01,overcast clouds
544,Waipawa,NZ,2022-01-29 20:56:31,-41.4122,175.5153,66.83,68.94,54,35,2.68,scattered clouds
545,Mtwara,TZ,2022-01-29 20:56:32,-10.2667,40.1833,75.96,75.96,89,100,4.25,overcast clouds
546,Great Yarmouth,GB,2022-01-29 20:56:32,52.6083,1.7305,44.31,46.94,71,30,19.35,scattered clouds
547,Debre Tabor,ET,2022-01-29 20:56:32,11.85,38.0167,54.59,54.59,57,8,1.45,clear sky
548,Sawtell,AU,2022-01-29 20:56:33,-30.3833,153.1,68.32,71.19,96,40,4.61,scattered clouds
549,Troitsko-Pechorsk,RU,2022-01-29 20:56:33,62.7084,56.1964,8.85,8.85,97,100,5.48,overcast clouds
550,Dillon,US,2022-01-29 20:56:33,34.4166,-79.3712,35.49,40.35,40,1,15.9,clear sky
551,Nago,JP,2022-01-29 20:56:34,26.5881,127.9761,60.46,62.76,84,100,14.14,overcast clouds
552,Tigil,RU,2022-01-29 20:56:34,57.8,158.6667,25.29,25.29,77,100,10.31,overcast clouds
553,Peleduy,RU,2022-01-29 20:57:34,59.6289,112.7406,-8.82,-8.82,100,100,3.06,overcast clouds
554,La Primavera,CO,2022-01-29 20:57:35,5.4906,-70.4092,96.08,96.08,26,34,12.48,scattered clouds
555,Ayaviri,PE,2022-01-29 20:57:35,-14.8864,-70.5889,57.9,57.9,51,89,5.37,moderate rain
556,Kurilsk,RU,2022-01-29 20:57:35,45.2333,147.8833,22.03,22.03,73,100,12.06,light snow
557,Shimoda,JP,2022-01-29 20:57:36,34.6667,138.95,38.1,38.1,73,66,9.51,broken clouds
558,Krasnoarmeysk,RU,2022-01-29 20:57:36,51.0239,45.6969,22.3,29.16,96,100,11.03,overcast clouds
559,Ulagan,RU,2022-01-29 20:57:37,50.6321,87.9563,-11.49,-11.49,87,87,1.54,overcast clouds
560,Brigham City,US,2022-01-29 20:57:37,41.5102,-112.0155,27.55,42.01,47,0,1.01,clear sky
561,Belmonte,BR,2022-01-29 20:57:37,-15.8631,-38.8828,81.1,81.1,79,16,10.2,few clouds
562,Antrim,GB,2022-01-29 20:57:38,54.6667,-6.25,37.74,42.37,93,75,6.91,broken clouds
563,Kuna,US,2022-01-29 20:57:38,43.4918,-116.4201,22.28,30.72,71,0,1.99,clear sky
564,Mpika,ZM,2022-01-29 20:57:39,-11.8343,31.4529,62.58,62.58,96,100,1.45,light rain
565,Saint Anthony,US,2022-01-29 20:57:39,45.0205,-93.218,22.84,28.89,61,100,3.0,overcast clouds
566,Tezu,IN,2022-01-29 20:57:39,27.9167,96.1667,50.16,50.16,52,0,4.09,clear sky
567,Byron Bay,AU,2022-01-29 20:57:40,-28.65,153.6167,68.11,73.35,81,61,8.77,broken clouds
568,Tuxpan,MX,2022-01-29 20:57:40,19.55,-103.4,82.56,82.56,27,3,8.21,clear sky
569,Hualmay,PE,2022-01-29 20:57:41,-11.0964,-77.6139,73.96,73.96,73,60,11.65,broken clouds
570,Sao Desiderio,BR,2022-01-29 20:53:16,-12.3633,-44.9733,72.55,72.55,94,100,5.41,overcast clouds
571,Manaure,CO,2022-01-29 20:57:41,11.7751,-72.4445,80.08,80.08,68,3,17.25,clear sky
572,Fort Wellington,GY,2022-01-29 20:57:41,6.4,-57.6,79.09,79.09,73,66,8.03,broken clouds
573,Lusambo,CD,2022-01-29 20:57:42,-4.9667,23.45,71.83,71.83,80,99,0.34,overcast clouds
574,The Valley,AI,2022-01-29 20:52:45,18.217,-63.0578,79.11,84.06,65,20,10.36,few clouds
575,Hondo,JP,2022-01-29 20:57:42,32.45,130.2,43.95,43.95,58,100,12.15,light rain
576,Kapra,IN,2022-01-29 20:57:43,17.4846,78.561,61.5,61.5,27,2,0.85,clear sky
577,Arona,ES,2022-01-29 20:57:43,28.0996,-16.681,50.65,59.52,75,20,1.01,haze
578,Williston,US,2022-01-29 20:53:36,48.147,-103.618,29.77,39.61,63,80,1.99,broken clouds
579,Hirado,JP,2022-01-29 20:57:43,33.3597,129.5531,43.36,43.36,52,100,12.64,overcast clouds
580,Panvel,IN,2022-01-29 20:57:44,18.9833,73.1,71.67,71.67,46,1,2.53,clear sky
581,Manoel Urbano,BR,2022-01-29 20:57:44,-8.8389,-69.2597,80.19,80.19,94,96,1.83,heavy intensity rain
582,Puntarenas,CR,2022-01-29 20:57:44,9.9763,-84.8384,91.33,91.33,42,2,4.25,clear sky
583,Mildura,AU,2022-01-29 20:57:45,-34.2,142.15,67.06,67.96,77,0,8.05,clear sky
584,Panama City,PA,2022-01-29 20:53:37,8.9936,-79.5197,77.79,90.93,48,40,12.66,scattered clouds
585,Bismil,TR,2022-01-29 20:57:45,37.8486,40.6658,33.53,35.71,98,100,1.54,overcast clouds
586,Camacha,PT,2022-01-29 20:57:45,33.0833,-16.3333,60.22,61.56,82,20,10.36,few clouds
587,Cururupu,BR,2022-01-29 20:57:46,-1.8283,-44.8683,73.26,73.26,96,100,2.95,light rain
588,Otorohanga,NZ,2022-01-29 20:57:46,-38.1833,175.2,71.19,71.96,57,17,1.36,few clouds
589,Acari,PE,2022-01-29 20:57:46,-15.4311,-74.6158,77.54,77.54,61,91,11.01,overcast clouds
590,Aksu,CN,2022-01-29 20:57:47,41.1231,80.2644,26.38,26.38,46,100,3.89,overcast clouds
591,Waingapu,ID,2022-01-29 20:54:02,-9.6567,120.2641,78.19,78.19,86,100,6.89,overcast clouds
592,Linjiang,CN,2022-01-29 20:57:47,41.8069,126.9078,-3.3,-3.3,99,44,0.89,scattered clouds
593,Prieska,ZA,2022-01-29 20:57:48,-29.6641,22.7474,80.46,80.46,38,99,9.44,overcast clouds
594,Miracema Do Tocantins,BR,2022-01-29 20:57:48,-9.5618,-48.3967,76.64,76.64,91,60,4.36,broken clouds
595,Stephenville Crossing,CA,2022-01-29 20:57:49,48.5,-58.4318,29.21,30.33,93,100,26.46,overcast clouds
596,Stanislav,UA,2022-01-29 20:57:49,46.5691,32.1478,31.3,31.3,72,55,11.21,broken clouds
597,Saint-Joseph,RE,2022-01-29 20:57:49,-21.3667,55.6167,75.56,75.58,83,42,9.86,scattered clouds
598,Jinchang,CN,2022-01-29 20:57:50,38.4953,102.1739,17.24,17.24,58,26,11.12,scattered clouds
599,Seeheim-Jugenheim,DE,2022-01-29 20:58:50,49.765,8.6519,41.94,48.02,92,100,15.32,overcast clouds
600,Campbell River,CA,2022-01-29 20:58:50,50.0163,-125.2446,37.45,39.25,100,100,0.0,mist
601,Camana,PE,2022-01-29 20:58:51,-16.6228,-72.7111,73.31,73.31,63,83,6.4,broken clouds
602,Costinesti,RO,2022-01-29 20:58:51,43.95,28.6333,29.07,37.02,75,17,11.59,few clouds
603,Bone,DE,2022-01-29 20:58:52,51.9669,12.1396,44.62,48.29,75,94,29.24,overcast clouds
604,Beloha,MG,2022-01-29 20:58:52,-25.1667,45.05,72.68,72.68,85,6,10.67,clear sky
605,Along,IN,2022-01-29 20:58:52,28.1667,94.7667,43.03,43.03,83,1,1.61,clear sky
606,San Vicente,AR,2022-01-29 20:58:53,-26.6167,-54.1333,69.33,69.33,76,93,6.06,overcast clouds
607,Aflao,TG,2022-01-29 20:58:53,6.116,1.1914,82.53,82.53,74,80,4.61,haze
608,Moose Factory,CA,2022-01-29 20:58:54,51.2585,-80.6094,1.38,1.4,60,0,9.22,clear sky
609,Rosetta,EG,2022-01-29 20:58:54,31.4044,30.4164,51.62,51.62,78,3,8.16,clear sky
610,Ust-Tsilma,RU,2022-01-29 20:58:54,65.441,52.1498,17.24,17.24,93,100,9.44,light snow
611,Port Blair,IN,2022-01-29 20:58:55,11.6667,92.75,77.04,77.04,83,75,2.3,mist
612,Opatija,HR,2022-01-29 20:58:55,45.3392,14.3083,32.36,43.48,73,67,2.39,broken clouds
613,Karasburg,NA,2022-01-29 20:55:47,-28.0167,18.75,83.95,83.95,27,100,6.06,overcast clouds
614,Maputo,MZ,2022-01-29 20:56:12,-25.9653,32.5892,74.66,75.22,89,75,7.0,broken clouds
615,Nhulunbuy,AU,2022-01-29 20:55:14,-12.2333,136.7667,83.01,83.01,83,40,14.97,scattered clouds
616,Imbituba,BR,2022-01-29 20:58:56,-28.24,-48.6703,69.69,73.81,82,91,7.63,overcast clouds
617,Necochea,AR,2022-01-29 20:55:59,-38.5473,-58.7368,90.03,90.03,40,1,18.07,clear sky
618,Batemans Bay,AU,2022-01-29 20:58:57,-35.7167,150.1833,69.91,75.2,95,96,2.19,overcast clouds
619,Juneau,US,2022-01-29 20:58:57,58.3019,-134.4197,38.98,42.8,89,100,0.0,moderate rain
620,Playas,EC,2022-01-29 20:58:57,-2.6333,-80.3833,76.96,76.96,82,100,10.45,light rain
621,Kabare,CD,2022-01-29 20:58:58,-2.4683,28.8242,62.35,62.35,87,100,1.52,overcast clouds
622,Gazli,UZ,2022-01-29 20:58:58,40.1333,63.45,35.53,35.53,68,1,8.23,clear sky
623,Ixtapa,MX,2022-01-29 20:58:59,20.7,-105.2,86.32,86.32,38,1,8.19,clear sky
624,Beryslav,UA,2022-01-29 20:58:59,46.8415,33.4284,27.73,27.73,89,49,9.08,scattered clouds
625,Whitehorse,CA,2022-01-29 20:58:59,60.7161,-135.0538,18.37,25.11,78,100,6.91,light snow
626,Gladstone,AU,2022-01-29 20:54:40,-23.85,151.25,76.93,76.93,78,100,9.22,overcast clouds
627,Grimshaw,CA,2022-01-29 20:59:00,56.1834,-117.6027,26.22,38.01,86,75,2.3,broken clouds
628,Kumphawapi,TH,2022-01-29 20:59:00,17.1087,103.0149,69.84,73.89,99,32,3.53,scattered clouds
629,Vadakku Valliyur,IN,2022-01-29 20:59:01,8.3833,77.65,74.25,74.25,89,41,8.1,scattered clouds
630,Severo-Kurilsk,RU,2022-01-29 20:59:01,50.6789,156.125,23.59,23.59,77,90,18.97,overcast clouds
631,San Luis,AR,2022-01-29 20:59:01,-33.295,-66.3356,88.5,88.5,23,0,3.62,clear sky
632,North Bend,US,2022-01-29 20:59:02,43.4065,-124.2243,54.86,59.16,60,7,4.99,clear sky
633,Mount Isa,AU,2022-01-29 20:59:02,-20.7333,139.5,74.97,74.97,100,100,6.91,overcast clouds
634,Barranca,PE,2022-01-29 20:59:03,-10.75,-77.7667,72.45,72.45,74,76,11.25,broken clouds
635,Gamba,GA,2022-01-29 20:59:03,-2.65,10.0,77.47,77.47,88,90,4.61,overcast clouds
636,Pokrovsk,UA,2022-01-29 20:57:08,48.282,37.1758,26.94,26.94,95,99,11.81,overcast clouds
637,Kununurra,AU,2022-01-29 20:54:45,-15.7667,128.7333,78.78,78.78,94,75,8.05,broken clouds
638,Aklavik,CA,2022-01-29 20:59:04,68.2191,-135.0107,-23.8,-15.77,76,75,3.44,broken clouds
639,Sioux Lookout,CA,2022-01-29 20:59:04,50.1001,-91.917,10.47,10.78,79,100,3.44,overcast clouds
640,Marzuq,YE,2022-01-29 20:59:05,14.4,46.4667,61.54,61.54,78,10,4.23,clear sky
641,Lata,PT,2022-01-29 20:59:05,40.1629,-8.3327,45.07,55.81,52,0,5.21,clear sky
642,Awjilah,LY,2022-01-29 20:59:05,29.1081,21.2869,52.52,52.52,38,0,11.72,clear sky
643,Semey,KZ,2022-01-29 20:59:06,50.4111,80.2275,10.26,10.26,78,100,15.48,overcast clouds
644,Tiznit,MA,2022-01-29 20:59:06,29.5833,-9.5,58.26,58.26,31,0,15.39,clear sky
645,Ndele,CF,2022-01-29 20:59:07,8.4109,20.6473,73.29,73.29,21,73,5.7,broken clouds
646,Alamosa,US,2022-01-29 20:59:07,37.4695,-105.87,31.51,38.35,57,1,2.91,clear sky
647,Vemalwada,IN,2022-01-29 21:00:07,18.4667,78.8833,59.77,59.77,31,4,2.93,clear sky
648,Bandarban,BD,2022-01-29 21:00:09,22.1965,92.2262,48.11,48.11,82,0,2.42,clear sky
649,Boden,SE,2022-01-29 21:00:12,65.8252,21.6886,19.4,19.4,92,100,11.59,light snow
650,Guanica,PR,2022-01-29 21:00:13,17.9716,-66.908,78.06,83.32,70,28,5.01,scattered clouds
651,Lebyazhye,RU,2022-01-29 21:00:13,55.2689,66.4947,5.34,5.34,93,100,5.28,overcast clouds
652,Makinsk,KZ,2022-01-29 21:00:14,52.6292,70.4169,-5.04,-5.04,100,43,4.14,scattered clouds
653,Markova,UA,2022-01-29 21:00:15,48.6758,24.4138,30.79,30.79,69,100,15.21,overcast clouds
654,Xinyang,CN,2022-01-29 21:00:15,32.1228,114.0656,31.44,31.44,80,11,1.88,few clouds
655,Los Llanos De Aridane,ES,2022-01-29 21:00:16,28.6585,-17.9182,56.12,58.75,74,9,8.99,clear sky
656,Grand Gaube,MU,2022-01-29 20:58:07,-20.0064,57.6608,79.38,81.0,75,90,5.01,overcast clouds
657,Moshupa,BW,2022-01-29 21:00:16,-24.7782,25.4155,66.92,66.92,86,96,9.48,overcast clouds
658,Honningsvag,NO,2022-01-29 21:00:17,70.9821,25.9704,18.93,18.93,67,85,10.71,overcast clouds
659,San Rafael,AR,2022-01-29 20:56:04,-34.6177,-68.3301,90.95,90.95,24,0,16.93,clear sky
660,Varzelandia,BR,2022-01-29 21:00:19,-15.7014,-44.0275,71.73,71.73,88,72,5.08,broken clouds
661,Cirebon,ID,2022-01-29 21:00:19,-6.7063,108.557,78.73,78.73,86,100,1.7,overcast clouds
662,Kalangala,UG,2022-01-29 21:00:20,-0.3089,32.225,74.55,74.55,67,75,10.31,broken clouds
663,Giporlos,PH,2022-01-29 21:00:21,11.12,125.4494,77.09,77.09,90,46,0.83,scattered clouds
664,High Level,CA,2022-01-29 21:00:22,58.5169,-117.136,12.31,12.31,92,100,4.61,light snow
665,Port Moresby,PG,2022-01-29 21:00:22,-9.4431,147.1797,77.07,77.07,82,100,7.11,heavy intensity rain
666,Partenit,UA,2022-01-29 21:00:23,44.578,34.3446,36.81,36.81,76,59,8.08,broken clouds
667,Burnie,AU,2022-01-29 21:00:24,-41.0667,145.9167,60.94,60.94,93,73,7.45,broken clouds
668,Jiujiang,CN,2022-01-29 21:00:24,29.7333,115.9833,36.73,36.73,85,96,6.35,overcast clouds
669,Siguiri,GN,2022-01-29 21:00:24,11.6667,-9.5,81.32,81.32,16,3,3.76,clear sky
670,Buzmeyin,TM,2022-01-29 21:00:25,38.0507,58.2056,40.86,40.86,62,3,2.95,clear sky
671,Lethem,GY,2022-01-29 21:00:25,3.3803,-59.7968,91.44,91.44,36,86,12.93,overcast clouds
