City ID,City,Country,Date,Lat,Lng,Max Temp,Humidity,Cloudiness,Wind Speed,Description
0,Lazaro Cardenas,MX,2022-01-29 19:14:48,17.9583,-102.2,83.43,57,0,7.07,clear sky
1,Los Andes,CL,2022-01-29 19:14:49,-32.8337,-70.5983,82.0,32,0,10.31,clear sky
2,Ejura,GH,2022-01-29 19:14:49,7.3856,-1.3562,87.4,16,98,4.61,overcast clouds
3,Gizo,SB,2022-01-29 19:14:49,-8.103,156.8419,82.27,77,100,8.9,light rain
4,Bilibino,RU,2022-01-29 19:19:08,68.0546,166.4372,-3.75,87,100,2.89,overcast clouds
5,Tessalit,ML,2022-01-29 19:19:08,20.1986,1.0114,72.72,11,97,12.12,overcast clouds
6,Bathsheba,BB,2022-01-29 19:22:45,13.2167,-59.5167,81.21,81,40,18.41,scattered clouds
7,Berdigestyakh,RU,2022-01-29 19:22:46,62.0989,126.6992,-25.15,100,100,2.64,overcast clouds
8,Punta Arenas,CL,2022-01-29 19:19:09,-53.15,-70.9167,55.51,44,75,19.57,broken clouds
9,Anadyr,RU,2022-01-29 19:14:51,64.75,177.4833,-12.5,76,40,2.24,fog
10,Rikitea,PF,2022-01-29 19:19:09,-23.1203,-134.9692,77.29,74,100,12.8,light rain
11,Harlingen,US,2022-01-29 19:22:46,26.1906,-97.6961,64.31,36,100,5.75,overcast clouds
12,Saint-Philippe,RE,2022-01-29 19:22:47,-21.3585,55.7679,78.39,84,56,9.51,broken clouds
13,Strezhevoy,RU,2022-01-29 19:22:47,60.7333,77.5889,-4.02,100,100,3.91,overcast clouds
14,Yellowknife,CA,2022-01-29 19:19:10,62.456,-114.3525,-4.59,85,100,5.75,light snow
15,Barrow,US,2022-01-29 19:22:47,71.2906,-156.7887,-7.58,71,100,12.66,overcast clouds
16,Kavieng,PG,2022-01-29 19:22:48,-2.5744,150.7967,81.16,78,100,8.46,moderate rain
17,Sao Filipe,CV,2022-01-29 19:22:48,14.8961,-24.4956,71.06,71,100,11.9,overcast clouds
18,Pangnirtung,CA,2022-01-29 19:22:48,66.1451,-65.7125,-14.8,70,100,4.61,light snow
19,Albany,US,2022-01-29 19:22:48,42.6001,-73.9662,15.15,64,100,8.01,overcast clouds
20,Tateyama,JP,2022-01-29 19:14:53,34.9833,139.8667,41.09,84,41,13.53,scattered clouds
21,Maniitsoq,GL,2022-01-29 19:14:54,65.4167,-52.9,10.11,75,100,29.3,light snow
22,San Cristobal,VE,2022-01-29 19:14:54,7.7669,-72.225,80.78,35,6,9.86,clear sky
23,Ushuaia,AR,2022-01-29 19:11:48,-54.8,-68.3,49.66,87,100,20.71,light rain
24,Ust-Omchug,RU,2022-01-29 19:14:54,61.15,149.6333,-12.82,99,94,6.17,overcast clouds
25,Craig,US,2022-01-29 19:12:27,40.5153,-107.5464,23.76,62,0,6.91,clear sky
26,Kalmunai,LK,2022-01-29 19:14:55,7.4167,81.8167,77.56,83,27,1.81,scattered clouds
27,Atuona,PF,2022-01-29 19:14:55,-9.8,-139.0333,77.23,80,29,14.54,light rain
28,Carthage,TN,2022-01-29 19:14:55,36.8611,10.3316,49.86,65,1,10.78,clear sky
29,Mataura,NZ,2022-01-29 19:10:53,-46.1927,168.8643,61.48,96,100,1.88,light rain
30,Ilulissat,GL,2022-01-29 19:10:38,69.2167,-51.1,14.02,52,75,18.41,broken clouds
31,Gravdal,NO,2022-01-29 19:14:56,68.1214,13.5031,29.61,78,100,8.32,overcast clouds
32,Vaini,TO,2022-01-29 19:10:52,-21.2,-175.2,81.34,79,100,17.36,light rain
33,Mahebourg,MU,2022-01-29 19:14:56,-20.4081,57.7,80.89,78,40,8.05,scattered clouds
34,Iqaluit,CA,2022-01-29 19:14:57,63.7506,-68.5145,-7.87,59,100,4.61,light snow
35,Pa Sang,TH,2022-01-29 19:14:57,18.5262,98.9394,67.12,60,40,1.99,scattered clouds
36,Qaanaaq,GL,2022-01-29 19:14:57,77.484,-69.3632,-4.97,62,100,8.93,overcast clouds
37,Jamestown,US,2022-01-29 19:20:56,42.097,-79.2353,18.52,48,20,5.01,few clouds
38,Nikolskoye,RU,2022-01-29 19:14:58,59.7035,30.7861,26.87,87,100,13.29,light snow
39,Wewak,PG,2022-01-29 19:19:13,-3.5534,143.6268,77.4,88,99,7.31,moderate rain
40,Ust-Kut,RU,2022-01-29 19:14:58,56.7938,105.7672,-9.74,100,96,1.12,overcast clouds
41,Dingle,PH,2022-01-29 19:10:50,10.9995,122.6711,74.98,91,11,1.86,few clouds
42,Georgetown,MY,2022-01-29 19:19:10,5.4112,100.3354,83.89,87,20,1.01,few clouds
43,Roebourne,AU,2022-01-29 19:14:59,-20.7833,117.1333,83.34,57,100,17.31,overcast clouds
44,Hermanus,ZA,2022-01-29 19:14:59,-34.4187,19.2345,74.89,71,1,15.86,clear sky
45,Carnarvon,AU,2022-01-29 19:11:07,-24.8667,113.6333,75.27,88,67,9.22,broken clouds
46,Hithadhoo,MV,2022-01-29 19:15:00,-0.6,73.0833,81.28,65,100,1.77,overcast clouds
47,Riberalta,BO,2022-01-29 19:11:56,-10.9833,-66.1,75.25,95,100,2.39,light rain
48,Udachnyy,RU,2022-01-29 19:16:00,66.4167,112.4,-23.17,100,41,3.27,scattered clouds
49,Sabaudia,IT,2022-01-29 19:16:00,41.3003,13.0282,49.91,58,5,6.58,clear sky
50,Hilo,US,2022-01-29 19:21:40,19.7297,-155.09,74.8,68,20,6.91,few clouds
51,Obihiro,JP,2022-01-29 19:16:01,42.9172,143.2044,10.89,86,65,7.14,broken clouds
52,Busselton,AU,2022-01-29 19:23:52,-33.65,115.3333,65.08,89,0,15.55,clear sky
53,Portland,US,2022-01-29 19:12:34,45.5234,-122.6762,48.11,65,20,1.01,few clouds
54,Provideniya,RU,2022-01-29 19:16:01,64.3833,-173.3,2.21,87,7,5.39,clear sky
55,Tasiilaq,GL,2022-01-29 19:23:52,65.6145,-37.6368,12.36,77,82,4.34,broken clouds
56,Geraldton,AU,2022-01-29 19:16:02,-28.7667,114.6,70.21,88,0,5.75,clear sky
57,Okha,RU,2022-01-29 19:16:02,53.5739,142.9478,-14.13,89,78,10.27,broken clouds
58,Luderitz,NA,2022-01-29 19:16:03,-26.6481,15.1594,68.22,78,53,10.33,broken clouds
59,Lebu,CL,2022-01-29 19:16:00,-37.6167,-73.65,64.9,74,3,8.52,clear sky
60,Cape Town,ZA,2022-01-29 19:14:11,-33.9258,18.4232,68.34,74,0,5.99,clear sky
61,Esperance,AU,2022-01-29 19:16:03,-33.8667,121.9,65.37,76,0,14.9,clear sky
62,Pevek,RU,2022-01-29 19:16:03,69.7008,170.3133,-15.81,99,98,2.08,overcast clouds
63,Lamar,US,2022-01-29 19:16:04,33.6668,-95.5836,64.36,29,0,10.36,clear sky
64,Norman Wells,CA,2022-01-29 19:12:54,65.282,-126.8329,-27.15,99,38,3.02,scattered clouds
65,Arraial Do Cabo,BR,2022-01-29 19:16:04,-22.9661,-42.0278,84.16,78,40,12.66,thunderstorm
66,Chimore,BO,2022-01-29 19:11:12,-16.9833,-65.1333,76.28,86,100,1.1,overcast clouds
67,Ponta Do Sol,PT,2022-01-29 19:23:54,32.6667,-17.1,65.03,67,9,4.38,clear sky
68,Nouakchott,MR,2022-01-29 19:16:05,18.0858,-15.9785,69.73,60,100,16.42,overcast clouds
69,Sambava,MG,2022-01-29 19:16:05,-14.2667,50.1667,78.37,84,16,11.07,few clouds
70,Talnakh,RU,2022-01-29 19:16:06,69.4865,88.3972,-0.45,97,100,10.04,overcast clouds
71,Saint-Augustin,CA,2022-01-29 19:16:07,51.226,-58.6502,8.26,79,100,13.15,overcast clouds
72,Port Alfred,ZA,2022-01-29 19:23:54,-33.5906,26.891,70.41,77,41,13.38,scattered clouds
73,Areia Branca,BR,2022-01-29 19:16:07,-4.9561,-37.1369,88.0,62,94,6.76,overcast clouds
74,Hobart,AU,2022-01-29 19:13:07,-42.8794,147.3294,60.66,67,100,8.05,overcast clouds
75,Rassvet,RU,2022-01-29 19:16:08,46.8333,40.75,33.91,100,100,18.12,overcast clouds
76,Vao,NC,2022-01-29 19:16:08,-22.6667,167.4833,78.31,86,98,10.04,overcast clouds
77,Ossora,RU,2022-01-29 19:16:08,59.2353,163.0719,25.83,96,100,21.68,snow
78,Port Macquarie,AU,2022-01-29 19:16:09,-31.4333,152.9167,66.88,100,100,0.0,overcast clouds
79,Zarautz,ES,2022-01-29 19:16:09,43.2844,-2.1699,48.34,87,0,2.71,clear sky
80,Castro,BR,2022-01-29 19:16:09,-24.7911,-50.0119,60.8,98,100,5.32,overcast clouds
81,Sobolevo,RU,2022-01-29 19:16:09,54.4299,31.8996,23.18,93,100,7.92,overcast clouds
82,Bandarbeyla,SO,2022-01-29 19:16:10,9.4942,50.8122,76.15,68,81,22.86,broken clouds
83,Bambous Virieux,MU,2022-01-29 19:16:10,-20.3428,57.7575,80.85,78,40,8.05,scattered clouds
84,Oriximina,BR,2022-01-29 19:16:10,-1.7656,-55.8661,75.38,96,100,4.92,overcast clouds
85,Tuktoyaktuk,CA,2022-01-29 19:16:11,69.4541,-133.0374,-9.4,77,75,16.11,light snow
86,Tlaltizapan,MX,2022-01-29 19:16:11,18.6833,-99.1167,81.32,31,0,2.24,clear sky
87,Bluff,NZ,2022-01-29 19:16:11,-46.6,168.3333,61.81,88,100,6.85,light rain
88,Parana,AR,2022-01-29 19:16:12,-31.732,-60.5238,90.57,39,0,4.99,clear sky
89,Kungurtug,RU,2022-01-29 19:16:12,50.5994,97.5228,-21.57,98,68,1.48,broken clouds
90,Yumen,CN,2022-01-29 19:16:13,40.2833,97.2,15.31,58,1,4.97,clear sky
91,Coihaique,CL,2022-01-29 19:16:03,-45.5752,-72.0662,68.61,42,40,10.36,scattered clouds
92,Saldanha,ZA,2022-01-29 19:13:22,-33.0117,17.9442,65.93,83,0,20.65,clear sky
93,Kodiak,US,2022-01-29 19:16:13,57.79,-152.4072,31.51,64,75,19.57,broken clouds
94,Morehead,US,2022-01-29 19:16:13,37.2711,-87.1764,34.84,59,75,1.99,broken clouds
95,Vangaindrano,MG,2022-01-29 19:17:14,-23.35,47.6,74.05,83,39,4.47,scattered clouds
96,Sisimiut,GL,2022-01-29 19:17:14,66.9395,-53.6735,10.13,89,100,27.13,snow
97,Khatanga,RU,2022-01-29 19:17:15,71.9667,102.5,-4.16,99,100,5.01,overcast clouds
98,Touros,BR,2022-01-29 19:24:57,-5.1989,-35.4608,83.3,70,100,10.67,overcast clouds
99,Mount Gambier,AU,2022-01-29 19:24:57,-37.8333,140.7667,62.51,88,100,9.22,overcast clouds
100,Weihai,CN,2022-01-29 19:17:16,37.5017,122.1136,32.22,47,99,14.34,overcast clouds
101,Tabas,IR,2022-01-29 19:24:58,33.5959,56.9244,47.66,27,3,1.81,clear sky
102,Bredasdorp,ZA,2022-01-29 19:24:58,-34.5322,20.0403,66.27,70,5,11.9,clear sky
103,Bowen,AU,2022-01-29 19:24:59,-20.0167,148.2333,73.62,81,7,10.89,clear sky
104,Pedasi,PA,2022-01-29 19:17:17,7.5333,-80.0333,92.07,69,4,14.81,clear sky
105,Huarmey,PE,2022-01-29 19:17:17,-10.0681,-78.1522,76.01,71,22,12.19,few clouds
106,Port Elizabeth,ZA,2022-01-29 19:17:18,-33.918,25.5701,69.1,77,75,11.5,broken clouds
107,Hualmay,PE,2022-01-29 19:17:18,-11.0964,-77.6139,75.38,70,74,11.3,broken clouds
108,Margate,GB,2022-01-29 19:17:19,51.3813,1.3862,51.31,65,59,10.0,broken clouds
109,Ornskoldsvik,SE,2022-01-29 19:17:20,63.2909,18.7153,31.82,100,100,6.91,light snow
110,Bafra,TR,2022-01-29 19:17:20,41.5678,35.9069,38.98,68,98,7.63,overcast clouds
111,New Norfolk,AU,2022-01-29 19:17:21,-42.7826,147.0587,58.5,99,22,1.23,few clouds
112,Teya,RU,2022-01-29 19:17:21,60.3778,92.6267,3.24,98,100,3.31,overcast clouds
113,Cabedelo,BR,2022-01-29 19:17:21,-6.9811,-34.8339,83.07,71,55,8.57,broken clouds
114,Allada,BJ,2022-01-29 19:17:22,6.6655,2.1514,83.16,56,87,5.14,overcast clouds
115,Hambantota,LK,2022-01-29 19:17:22,6.1241,81.1185,78.24,81,72,6.38,broken clouds
116,Toora-Khem,RU,2022-01-29 19:17:22,52.4675,96.11,-22.63,100,95,0.45,overcast clouds
117,Mayo,US,2022-01-29 19:17:23,38.8876,-76.5119,28.9,44,40,14.0,scattered clouds
118,Lipin Bor,RU,2022-01-29 19:17:23,60.2622,37.9763,3.49,100,99,3.42,overcast clouds
119,Auki,SB,2022-01-29 19:17:23,-8.7676,160.7034,77.45,89,96,7.05,light rain
120,Upernavik,GL,2022-01-29 19:17:23,72.7868,-56.1549,1.42,93,100,3.65,overcast clouds
121,Zhigansk,RU,2022-01-29 19:17:24,66.7697,123.3711,-27.8,100,100,3.67,overcast clouds
122,Henties Bay,NA,2022-01-29 19:17:24,-22.116,14.2845,63.86,81,90,7.74,overcast clouds
123,Dikson,RU,2022-01-29 19:17:24,73.5069,80.5464,2.88,93,100,21.41,overcast clouds
124,Cap Malheureux,MU,2022-01-29 19:17:25,-19.9842,57.6142,81.09,75,75,5.99,broken clouds
125,Pemangkat,ID,2022-01-29 19:17:26,1.1667,108.9667,77.2,86,100,3.44,overcast clouds
126,Puerto Ayora,EC,2022-01-29 19:13:21,-0.7393,-90.3518,80.56,69,17,9.64,few clouds
127,Pochutla,MX,2022-01-29 19:17:26,15.7432,-96.4661,86.83,44,0,10.6,clear sky
128,Port Hardy,CA,2022-01-29 19:16:05,50.6996,-127.4199,46.76,87,100,18.41,light rain
129,Fortuna,US,2022-01-29 19:17:27,40.5982,-124.1573,58.93,60,0,7.0,clear sky
130,Kruisfontein,ZA,2022-01-29 19:17:27,-34.0033,24.7314,66.88,80,0,9.69,clear sky
131,Korla,CN,2022-01-29 19:17:27,41.7597,86.1469,23.61,56,100,4.79,overcast clouds
132,Vanavara,RU,2022-01-29 19:17:28,60.34,102.2797,-6.92,99,100,3.09,overcast clouds
133,Longyearbyen,SJ,2022-01-29 19:17:28,78.2186,15.6401,8.44,66,0,16.11,clear sky
134,Lompoc,US,2022-01-29 19:17:28,34.6391,-120.4579,68.09,44,0,5.75,clear sky
135,Chapais,CA,2022-01-29 19:17:29,49.7834,-74.8492,-4.22,76,6,4.41,clear sky
136,Lavrentiya,RU,2022-01-29 19:17:29,65.5833,-171.0,-4.56,84,6,3.78,clear sky
137,Santa Marta,CO,2022-01-29 19:15:23,11.2408,-74.199,89.65,59,20,1.99,few clouds
138,Los Llanos De Aridane,ES,2022-01-29 19:17:29,28.6585,-17.9182,62.35,77,19,10.36,few clouds
139,Baniyas,SY,2022-01-29 19:17:30,35.1819,35.9487,50.29,77,65,10.13,broken clouds
140,Kapaa,US,2022-01-29 19:17:30,22.0752,-159.319,77.32,82,100,11.5,overcast clouds
141,Lagoa,PT,2022-01-29 19:17:30,39.05,-27.9833,57.92,76,84,11.3,broken clouds
142,Namatanai,PG,2022-01-29 19:26:00,-3.6667,152.4333,79.12,82,100,2.13,light rain
143,Port Lincoln,AU,2022-01-29 19:26:03,-34.7333,135.8667,64.26,88,32,14.38,scattered clouds
144,Cayenne,GF,2022-01-29 19:26:03,4.9333,-52.3333,84.24,80,75,7.0,broken clouds
145,Kirakira,SB,2022-01-29 19:26:00,-10.4544,161.9205,79.48,86,100,8.19,moderate rain
146,Westport,US,2022-01-29 19:26:04,41.1415,-73.3579,18.75,88,100,5.01,light snow
147,Marfino,RU,2022-01-29 19:26:04,55.7028,37.3822,25.05,86,100,4.47,mist
148,Husavik,IS,2022-01-29 19:26:04,66.0449,-17.3389,28.31,76,11,21.23,few clouds
149,Mareeba,AU,2022-01-29 19:26:05,-17.0,145.4333,72.32,98,100,2.17,overcast clouds
150,Mar Del Plata,AR,2022-01-29 19:23:11,-38.0023,-57.5575,86.02,89,0,21.0,light rain
151,Ancud,CL,2022-01-29 19:26:05,-41.8697,-73.8203,70.43,70,33,11.97,scattered clouds
152,Tuatapere,NZ,2022-01-29 19:26:06,-46.1333,167.6833,61.83,93,100,4.09,light rain
153,Oussouye,SN,2022-01-29 19:26:06,12.485,-16.5469,86.18,46,100,14.27,overcast clouds
154,Campbellton,CA,2022-01-29 19:26:07,48.0075,-66.6727,5.45,88,100,6.8,light snow
155,Socorro,US,2022-01-29 19:26:07,31.6546,-106.3033,53.91,26,20,4.61,few clouds
156,Clyde River,CA,2022-01-29 19:24:13,70.4692,-68.5914,-7.37,64,100,14.97,snow
157,Datong,CN,2022-01-29 19:26:08,40.0936,113.2914,20.35,50,9,3.24,clear sky
158,Mitsamiouli,KM,2022-01-29 19:26:08,-11.3847,43.2844,81.55,73,42,6.85,scattered clouds
159,Torbay,CA,2022-01-29 19:26:08,47.6666,-52.7314,34.29,86,100,19.57,overcast clouds
160,East London,ZA,2022-01-29 19:26:09,-33.0153,27.9116,72.39,78,100,12.97,overcast clouds
161,Poya,NC,2022-01-29 19:26:09,-21.35,165.15,77.52,91,49,4.09,scattered clouds
162,Alofi,NU,2022-01-29 19:26:09,-19.0595,-169.9187,80.49,89,100,5.75,overcast clouds
163,Marzuq,YE,2022-01-29 19:26:10,14.4,46.4667,63.37,73,7,4.7,clear sky
164,Torrox,ES,2022-01-29 19:26:10,36.7579,-3.9523,58.66,41,0,5.01,clear sky
165,San Quintin,MX,2022-01-29 19:26:11,30.4833,-115.95,66.27,34,5,2.77,clear sky
166,Klaksvik,FO,2022-01-29 19:26:11,62.2266,-6.589,34.72,65,77,34.47,broken clouds
167,Katsuura,JP,2022-01-29 19:25:58,35.1333,140.3,41.18,84,31,13.91,scattered clouds
168,Winnemucca,US,2022-01-29 19:25:37,40.973,-117.7357,39.25,38,0,0.0,clear sky
169,Kantang,TH,2022-01-29 19:26:12,7.4054,99.5156,75.63,88,11,2.04,few clouds
170,Thompson,CA,2022-01-29 19:23:50,55.7435,-97.8558,-0.24,71,40,6.91,scattered clouds
171,Poum,NC,2022-01-29 19:21:21,-20.2333,164.0167,80.73,80,32,8.77,scattered clouds
172,Guerrero Negro,MX,2022-01-29 19:22:54,27.9769,-114.0611,69.78,29,7,4.18,clear sky
173,Pskov,RU,2022-01-29 19:26:12,57.8136,28.3496,28.31,69,0,13.42,snow
174,Tazovskiy,RU,2022-01-29 19:26:13,67.4667,78.7,-16.31,100,98,5.86,overcast clouds
175,Ixtapa,MX,2022-01-29 19:26:13,20.7,-105.2,76.23,57,0,5.75,clear sky
176,Linxi,CN,2022-01-29 19:26:13,39.7,118.4333,21.92,35,0,1.39,clear sky
177,Tiksi,RU,2022-01-29 19:26:14,71.6872,128.8694,-8.48,100,56,3.98,broken clouds
178,Rio Grande,BR,2022-01-29 19:26:14,-32.035,-52.0986,80.71,52,0,14.18,clear sky
179,Kaitangata,NZ,2022-01-29 19:26:15,-46.2817,169.8464,54.86,95,100,4.54,overcast clouds
180,Puerto Narino,CO,2022-01-29 19:26:15,-3.7703,-70.3831,91.35,36,25,5.64,scattered clouds
181,Kloulklubed,PW,2022-01-29 19:26:15,7.0419,134.2556,81.43,77,68,6.06,broken clouds
182,Anastacio,BR,2022-01-29 19:26:16,-20.4836,-55.8069,84.88,72,22,2.68,few clouds
183,Bongandanga,CD,2022-01-29 19:26:16,1.5,21.05,78.24,29,7,1.63,clear sky
184,Chokurdakh,RU,2022-01-29 19:26:17,70.6333,147.9167,-13.4,87,100,1.05,overcast clouds
185,Camacupa,AO,2022-01-29 19:26:17,-12.0167,17.4833,63.25,93,100,4.05,overcast clouds
186,Victoria,HK,2022-01-29 19:24:48,22.2855,114.1577,62.26,81,100,15.01,overcast clouds
187,Aykhal,RU,2022-01-29 19:24:12,66.0,111.5,-19.71,99,5,4.83,clear sky
188,Ponte Nova,BR,2022-01-29 19:27:18,-20.4164,-42.9086,80.42,81,93,6.42,light rain
189,Najran,SA,2022-01-29 19:24:54,17.4924,44.1277,63.25,34,11,3.49,few clouds
190,Ziarat,PK,2022-01-29 19:27:18,30.3823,67.7282,38.25,45,35,4.5,scattered clouds
191,Ribeira Grande,PT,2022-01-29 19:26:31,38.5167,-28.7,61.2,63,20,6.91,few clouds
192,Cherskiy,RU,2022-01-29 19:27:19,68.75,161.3,-29.4,100,23,1.41,few clouds
193,Pachino,IT,2022-01-29 19:27:19,36.7186,15.0907,46.6,56,3,14.92,clear sky
194,Kargil,IN,2022-01-29 19:27:19,34.5667,76.1,-3.96,98,97,2.51,overcast clouds
195,Severo-Kurilsk,RU,2022-01-29 19:27:20,50.6789,156.125,23.43,75,86,19.39,overcast clouds
196,Bireun,ID,2022-01-29 19:27:20,5.203,96.7009,76.75,86,89,3.89,overcast clouds
197,Cidreira,BR,2022-01-29 19:27:21,-30.1811,-50.2056,74.66,56,84,12.41,broken clouds
198,Bethel,US,2022-01-29 19:27:21,41.3712,-73.414,16.03,79,100,8.01,snow
199,Saint George,US,2022-01-29 19:27:22,37.1041,-113.5841,56.35,22,0,1.99,clear sky
200,Baker City,US,2022-01-29 19:27:22,44.7749,-117.8344,28.81,68,0,0.0,clear sky
201,Butembo,CD,2022-01-29 19:27:22,0.15,29.2833,61.09,63,85,3.02,overcast clouds
202,Nagato,JP,2022-01-29 19:27:23,34.3833,131.2,40.91,56,100,7.0,overcast clouds
203,San Patricio,US,2022-01-29 19:27:23,28.017,-97.5169,65.16,28,8,3.71,clear sky
204,Staritsa,RU,2022-01-29 19:27:24,56.5075,34.9354,20.39,94,100,4.54,overcast clouds
205,Pareora,NZ,2022-01-29 19:27:24,-44.4871,171.2132,62.19,97,99,3.4,overcast clouds
206,Pisco,PE,2022-01-29 19:27:24,-13.7,-76.2167,75.25,60,0,11.5,clear sky
207,Butaritari,KI,2022-01-29 19:27:25,3.0707,172.7902,81.75,77,12,19.33,light rain
208,Two Hills,CA,2022-01-29 19:27:25,53.7169,-111.7518,35.83,69,19,6.91,few clouds
209,At-Bashi,KG,2022-01-29 19:27:26,41.1702,75.8106,1.27,78,31,3.71,scattered clouds
210,Goderich,CA,2022-01-29 19:27:26,43.7501,-81.7165,17.91,73,68,6.91,broken clouds
211,Along,IN,2022-01-29 19:27:26,28.1667,94.7667,44.29,82,2,1.83,clear sky
212,Saskylakh,RU,2022-01-29 19:27:27,71.9167,114.0833,-21.53,98,100,3.49,overcast clouds
213,Rafai,CF,2022-01-29 19:27:27,4.95,23.9167,73.67,25,40,3.85,scattered clouds
214,Sitka,US,2022-01-29 19:27:28,57.0531,-135.33,39.09,81,75,12.66,moderate rain
215,Egvekinot,RU,2022-01-29 19:27:28,66.3167,-179.1667,-4.54,65,13,2.68,few clouds
216,Zimmi,SL,2022-01-29 19:27:28,7.3153,-11.3061,80.74,69,100,6.29,overcast clouds
217,Constitucion,CL,2022-01-29 19:27:29,-35.3333,-72.4167,66.15,73,51,10.6,broken clouds
218,Faanui,PF,2022-01-29 19:27:29,-16.4833,-151.75,80.15,74,18,12.5,moderate rain
219,Denpasar,ID,2022-01-29 19:23:46,-8.65,115.2167,78.46,88,75,4.61,moderate rain
220,Haian,CN,2022-01-29 19:27:29,32.5436,120.45,33.98,74,100,4.61,overcast clouds
221,Brainerd,US,2022-01-29 19:27:30,46.358,-94.2008,23.25,63,0,8.05,clear sky
222,Ukiah,US,2022-01-29 19:27:30,39.1502,-123.2078,64.04,42,0,0.0,clear sky
223,Alamosa,US,2022-01-29 19:27:30,37.4695,-105.87,45.66,50,0,0.0,clear sky
224,Lielvarde,LV,2022-01-29 19:27:31,56.7207,24.8074,31.59,96,100,20.31,snow
225,Marawi,PH,2022-01-29 19:27:31,7.9986,124.2928,66.65,93,81,0.31,broken clouds
226,Avarua,CK,2022-01-29 19:25:33,-21.2078,-159.775,80.65,83,40,10.36,scattered clouds
227,Baykit,RU,2022-01-29 19:27:32,61.67,96.37,-1.1,100,100,1.12,overcast clouds
228,Yeppoon,AU,2022-01-29 19:27:32,-23.1333,150.7333,74.98,84,99,13.42,overcast clouds
229,Yarmouth,US,2022-01-29 19:27:32,41.7057,-70.2286,28.96,96,100,41.23,snow
230,Yulara,AU,2022-01-29 19:27:33,-25.2406,130.9889,80.44,65,100,14.97,overcast clouds
231,Simpang,ID,2022-01-29 19:27:33,-1.2667,104.0833,74.35,93,91,0.83,overcast clouds
232,Eydhafushi,MV,2022-01-29 19:27:34,5.1033,73.0708,82.76,65,53,14.5,broken clouds
233,Mopipi,BW,2022-01-29 19:27:34,-21.1833,24.8833,77.92,60,100,17.27,overcast clouds
234,Destin,US,2022-01-29 19:28:34,30.3935,-86.4958,49.96,25,0,13.8,clear sky
235,Mogadishu,SO,2022-01-29 19:28:35,2.0371,45.3438,77.67,80,9,22.15,clear sky
236,Novobirilyussy,RU,2022-01-29 19:28:35,56.9514,90.6661,-6.0,97,83,4.0,broken clouds
237,Popondetta,PG,2022-01-29 19:28:36,-8.7537,148.2534,73.76,94,100,2.04,overcast clouds
238,Samfya,ZM,2022-01-29 19:28:36,-11.3649,29.5565,68.38,89,100,4.0,light rain
239,Vestmanna,FO,2022-01-29 19:28:37,62.1564,-7.1664,32.92,64,75,28.77,broken clouds
240,Lasa,IT,2022-01-29 19:28:37,46.6166,10.7002,45.48,61,7,8.93,clear sky
241,Imeni Morozova,RU,2022-01-29 19:28:37,59.9757,31.0376,26.85,88,100,13.67,light snow
242,Necochea,AR,2022-01-29 19:27:34,-38.5473,-58.7368,92.03,37,0,13.22,clear sky
243,Griffith,US,2022-01-29 19:28:38,41.5284,-87.4237,24.1,57,0,4.0,clear sky
244,Cockburn Town,TC,2022-01-29 19:28:38,21.4612,-71.1419,77.74,74,0,9.82,clear sky
245,Samana,DO,2022-01-29 19:28:39,19.2056,-69.3369,88.02,66,20,9.22,few clouds
246,Tiznit,MA,2022-01-29 19:28:39,29.5833,-9.5,60.82,26,0,24.45,clear sky
247,Raudeberg,NO,2022-01-29 19:28:40,61.9875,5.1352,38.07,77,100,42.01,overcast clouds
248,La Peca,PE,2022-01-29 19:28:40,-5.6111,-78.435,86.59,45,66,2.57,light rain
249,Nome,US,2022-01-29 19:28:40,64.5011,-165.4064,-6.9,70,0,5.75,clear sky
250,Buala,SB,2022-01-29 19:23:45,-8.145,159.5921,80.04,83,100,7.72,light rain
251,Omboue,GA,2022-01-29 19:28:41,-1.5746,9.2618,78.76,84,94,5.08,overcast clouds
252,Vestmannaeyjar,IS,2022-01-29 19:28:41,63.4427,-20.2734,40.24,66,100,17.72,overcast clouds
253,Terekli-Mekteb,RU,2022-01-29 19:28:42,44.1671,45.8698,34.95,85,99,10.74,overcast clouds
254,Laguna,US,2022-01-29 19:28:42,38.421,-121.4238,65.97,64,0,1.01,clear sky
255,Benguela,AO,2022-01-29 19:28:42,-12.5763,13.4055,78.08,82,100,6.76,overcast clouds
256,Port Hueneme,US,2022-01-29 19:28:43,34.1478,-119.1951,68.54,19,0,9.22,clear sky
257,Camabatela,AO,2022-01-29 19:28:43,-8.1881,15.375,63.81,96,100,2.1,overcast clouds
258,Soyo,AO,2022-01-29 19:28:44,-6.1349,12.3689,79.83,85,100,7.7,overcast clouds
259,Mkushi,ZM,2022-01-29 19:28:44,-13.6202,29.3939,66.18,94,100,2.53,light rain
260,Aklavik,CA,2022-01-29 19:28:44,68.2191,-135.0107,-15.77,76,75,4.61,broken clouds
261,Treuchtlingen,DE,2022-01-29 19:28:45,48.95,10.9167,43.75,88,100,21.32,overcast clouds
262,Biabou,VC,2022-01-29 19:28:45,13.2,-61.1333,82.49,74,40,11.5,scattered clouds
263,Mwinilunga,ZM,2022-01-29 19:28:46,-11.7358,24.4293,63.18,98,100,4.88,light rain
264,Kemijarvi,FI,2022-01-29 19:28:46,66.7131,27.4306,15.3,95,100,6.93,light snow
265,Santiago Del Estero,AR,2022-01-29 19:28:46,-27.7951,-64.2615,89.91,24,0,4.83,clear sky
266,Yar-Sale,RU,2022-01-29 19:28:47,66.8333,70.8333,-7.83,96,100,8.23,overcast clouds
267,Coquimbo,CL,2022-01-29 19:28:47,-29.9533,-71.3436,67.73,72,20,14.97,few clouds
268,Cabo San Lucas,MX,2022-01-29 19:27:20,22.8909,-109.9124,80.62,59,0,5.01,clear sky
269,Chingola,ZM,2022-01-29 19:28:47,-12.529,27.8838,63.77,95,100,4.12,light rain
270,Rocha,UY,2022-01-29 19:28:48,-34.4833,-54.3333,78.96,50,10,12.28,clear sky
271,Chuy,UY,2022-01-29 19:28:48,-33.6971,-53.4616,76.75,53,27,11.43,scattered clouds
272,Ceres,US,2022-01-29 19:28:49,37.5949,-120.9577,59.68,72,0,5.75,clear sky
273,Altay,CN,2022-01-29 19:28:49,47.8667,88.1167,1.63,52,7,7.63,clear sky
274,Srandakan,ID,2022-01-29 19:28:49,-7.9386,110.2506,78.28,85,100,4.7,overcast clouds
275,Abu Samrah,SY,2022-01-29 19:28:50,35.3029,37.1841,41.22,77,100,7.31,overcast clouds
276,Autazes,BR,2022-01-29 19:28:50,-3.5797,-59.1306,79.43,92,100,4.59,moderate rain
277,Boden,SE,2022-01-29 19:28:51,65.8252,21.6886,21.2,93,100,9.86,overcast clouds
278,Oxelosund,SE,2022-01-29 19:28:51,58.6706,17.1015,43.52,93,100,11.01,overcast clouds
279,Murray Bridge,AU,2022-01-29 19:28:28,-35.1167,139.2667,69.69,75,0,6.08,clear sky
280,Port Blair,IN,2022-01-29 19:28:52,11.6667,92.75,77.04,88,75,2.3,mist
281,Manta,EC,2022-01-29 19:29:52,-0.95,-80.7333,82.18,74,40,8.05,scattered clouds
282,Nanortalik,GL,2022-01-29 19:29:52,60.1432,-45.2371,20.21,70,100,14.03,light snow
283,Flin Flon,CA,2022-01-29 19:29:01,54.7682,-101.865,4.84,66,40,3.44,scattered clouds
284,Pangkalanbuun,ID,2022-01-29 19:29:53,-2.6833,111.6167,75.0,93,100,1.43,overcast clouds
285,Northam,GB,2022-01-29 19:29:53,51.0333,-4.2167,49.01,88,93,12.62,overcast clouds
286,Mopti,ML,2022-01-29 19:29:54,14.6667,-4.0,81.5,11,2,11.43,clear sky
287,Olafsvik,IS,2022-01-29 19:29:54,64.8945,-23.7142,38.41,70,100,27.18,light rain
288,Abu Zabad,SD,2022-01-29 19:29:54,12.35,29.25,65.8,14,40,14.45,scattered clouds
289,Jalu,LY,2022-01-29 19:29:55,29.0331,21.5482,54.63,42,0,9.91,clear sky
290,Utete,TZ,2022-01-29 19:29:55,-7.986,38.758,72.79,98,100,5.88,light rain
291,Mariental,NA,2022-01-29 19:29:56,-24.6333,17.9667,81.14,43,96,13.2,overcast clouds
292,Edson,CA,2022-01-29 19:25:00,53.5835,-116.4356,39.34,44,40,0.0,scattered clouds
293,Maceio,BR,2022-01-29 19:29:56,-9.6658,-35.7353,85.44,70,100,3.44,overcast clouds
294,Vikulovo,RU,2022-01-29 19:29:57,56.8167,70.6107,7.3,89,100,6.89,overcast clouds
295,Bani Walid,LY,2022-01-29 19:29:57,31.7566,13.9942,51.26,69,48,15.99,scattered clouds
296,Sistranda,NO,2022-01-29 19:29:57,63.7256,8.834,38.89,81,100,26.26,overcast clouds
297,Slave Lake,CA,2022-01-29 19:29:58,55.2834,-114.769,28.38,74,0,4.61,clear sky
298,Yerbogachen,RU,2022-01-29 19:29:58,61.2767,108.0108,-24.39,100,80,3.29,broken clouds
299,Kavaratti,IN,2022-01-29 19:29:58,10.5669,72.642,80.85,73,72,6.06,broken clouds
300,Maxixe,MZ,2022-01-29 19:29:59,-23.8597,35.3472,76.82,83,20,3.44,few clouds
301,Khowai,IN,2022-01-29 19:29:59,24.1,91.6333,51.48,61,0,2.28,clear sky
302,Bilma,NE,2022-01-29 19:29:59,18.6853,12.9164,63.23,16,0,10.13,clear sky
303,Porto Novo,BJ,2022-01-29 19:30:00,6.4965,2.6036,84.02,65,20,4.65,few clouds
304,Grand Gaube,MU,2022-01-29 19:30:00,-20.0064,57.6608,81.0,75,79,4.0,broken clouds
305,Inhambane,MZ,2022-01-29 19:30:01,-23.865,35.3833,76.98,83,20,3.44,few clouds
306,Rzhanitsa,RU,2022-01-29 19:30:02,53.4284,33.923,27.05,95,100,5.82,overcast clouds
307,Horn,DE,2022-01-29 19:30:03,51.8715,8.9451,47.25,86,100,23.33,overcast clouds
308,Lagunas,PE,2022-01-29 19:30:03,-5.2269,-75.6753,90.81,48,100,4.14,overcast clouds
309,Sadasivpet,IN,2022-01-29 19:30:04,17.6212,77.9503,63.41,29,5,2.89,clear sky
310,Hamilton,US,2022-01-29 19:28:47,39.1834,-84.5333,26.64,59,100,1.01,overcast clouds
311,Syumsi,RU,2022-01-29 19:30:05,57.1111,51.6149,4.01,99,100,3.65,overcast clouds
312,Panama City,PA,2022-01-29 19:30:06,8.9936,-79.5197,91.92,46,40,12.66,very heavy rain
313,Magadan,RU,2022-01-29 19:30:07,59.5667,150.8,10.92,75,100,12.33,overcast clouds
314,Saint Pete Beach,US,2022-01-29 19:30:08,27.7253,-82.7412,53.35,58,0,5.01,clear sky
315,Businga,CD,2022-01-29 19:30:08,3.3333,20.8833,74.73,30,57,1.61,broken clouds
316,Barber,CW,2022-01-29 19:30:08,12.2833,-69.0667,82.38,69,40,8.05,scattered clouds
317,Poso,ID,2022-01-29 19:30:09,-1.3959,120.7524,76.93,79,100,3.53,overcast clouds
318,Beringovskiy,RU,2022-01-29 19:30:09,63.05,179.3167,-11.31,100,99,4.05,overcast clouds
319,Ugoofaaru,MV,2022-01-29 19:30:10,5.6667,73.0,82.11,73,67,15.61,broken clouds
320,Yukamenskoye,RU,2022-01-29 19:30:10,57.8865,52.2416,-1.5,100,97,4.14,overcast clouds
321,Tommot,RU,2022-01-29 19:30:11,58.9564,126.2925,-5.3,95,100,7.96,overcast clouds
322,Batemans Bay,AU,2022-01-29 19:30:11,-35.7167,150.1833,75.2,96,98,2.1,overcast clouds
323,Mana,GF,2022-01-29 19:30:11,5.6592,-53.7767,80.22,74,97,8.93,overcast clouds
324,College,US,2022-01-29 19:30:12,64.8569,-147.8028,-13.34,73,40,3.44,scattered clouds
325,West Wendover,US,2022-01-29 19:30:12,40.7391,-114.0733,35.35,31,0,1.92,clear sky
326,Novaya Igirma,RU,2022-01-29 19:30:13,57.1334,103.9112,-13.14,100,92,1.99,overcast clouds
327,Vila Velha,BR,2022-01-29 19:30:13,-20.3297,-40.2925,85.95,75,20,14.0,few clouds
328,Hurghada,EG,2022-01-29 19:30:13,27.2574,33.8129,56.25,54,0,14.74,clear sky
329,Comodoro Rivadavia,AR,2022-01-29 19:30:14,-45.8667,-67.5,91.26,7,0,20.71,clear sky
330,Bereda,ES,2022-01-29 19:26:00,43.2686,-7.5406,48.88,93,100,3.98,overcast clouds
331,Cururupu,BR,2022-01-29 19:31:14,-1.8283,-44.8683,74.62,95,100,2.66,overcast clouds
332,Yalta,UA,2022-01-29 19:31:15,44.5,34.1667,35.47,82,75,7.29,broken clouds
333,Mount Isa,AU,2022-01-29 19:31:15,-20.7333,139.5,74.97,100,75,6.91,broken clouds
334,Algeciras,ES,2022-01-29 19:31:16,36.1333,-5.4505,58.77,67,20,20.71,few clouds
335,Frontera,MX,2022-01-29 19:31:16,26.9333,-101.45,57.33,42,7,3.0,clear sky
336,Kamenka,RU,2022-01-29 19:31:16,51.3223,42.7678,31.75,98,100,7.14,light snow
337,Souillac,MU,2022-01-29 19:31:17,-20.5167,57.5167,80.98,78,40,8.05,scattered clouds
338,Woodward,US,2022-01-29 19:31:17,36.4337,-99.3904,63.97,18,0,9.22,clear sky
339,Manuk Mangkaw,PH,2022-01-29 19:31:18,4.8,119.85,81.09,72,95,4.09,overcast clouds
340,Vanimo,PG,2022-01-29 19:31:18,-2.6741,141.3028,75.97,89,100,7.85,overcast clouds
341,Pitimbu,BR,2022-01-29 19:31:19,-7.4706,-34.8086,82.99,74,83,7.07,light rain
342,Ust-Maya,RU,2022-01-29 19:31:19,60.4167,134.5333,-33.61,100,93,0.04,overcast clouds
343,Kahului,US,2022-01-29 19:31:19,20.8947,-156.47,78.06,62,20,0.0,few clouds
344,Aberdeen,GB,2022-01-29 19:30:05,57.1437,-2.0981,42.21,69,7,23.02,clear sky
345,San Andres,CO,2022-01-29 19:31:20,12.5847,-81.7006,84.22,65,20,6.91,few clouds
346,Bogdanovich,RU,2022-01-29 19:31:20,56.7803,62.0494,0.52,98,99,0.4,overcast clouds
347,Surt,LY,2022-01-29 19:31:21,31.2089,16.5887,57.6,63,80,22.12,broken clouds
348,Cartagena,CO,2022-01-29 19:31:21,10.3997,-75.5144,87.42,58,20,17.27,few clouds
349,Harper,LR,2022-01-29 19:31:21,4.375,-7.7169,80.15,85,63,7.23,broken clouds
350,Bubaque,GW,2022-01-29 19:31:02,11.2833,-15.8333,78.26,71,100,20.87,overcast clouds
351,Labuhan,ID,2022-01-29 19:31:22,-6.8844,112.2051,78.53,85,100,6.26,overcast clouds
352,Gat,IL,2022-01-29 19:30:05,31.61,34.7642,49.41,100,0,3.36,clear sky
353,Hakkari,TR,2022-01-29 19:31:23,37.5833,44.1667,7.23,97,84,1.45,broken clouds
354,Cervo,ES,2022-01-29 19:31:23,43.6702,-7.4101,50.97,84,100,14.9,overcast clouds
355,Srednekolymsk,RU,2022-01-29 19:31:23,67.45,153.6833,-23.93,100,93,4.94,overcast clouds
356,Salina,US,2022-01-29 19:30:01,38.8403,-97.6114,57.31,22,0,10.36,clear sky
357,Barahona,DO,2022-01-29 19:31:24,18.2085,-71.1008,85.82,66,40,14.97,scattered clouds
358,Abrau-Dyurso,RU,2022-01-29 19:31:24,44.69,37.59,35.06,91,100,9.75,snow
359,Boissevain,CA,2022-01-29 19:31:25,49.2306,-100.0559,21.06,92,100,11.43,overcast clouds
360,San Fernando,PH,2022-01-29 19:31:26,15.0286,120.6898,80.69,87,6,2.55,clear sky
361,Pathein,MM,2022-01-29 19:31:26,16.7833,94.7333,63.9,69,94,7.4,overcast clouds
362,Novo Aripuana,BR,2022-01-29 19:31:27,-5.1206,-60.3797,73.33,99,100,3.0,heavy intensity rain
363,Hirara,JP,2022-01-29 19:31:27,24.8,125.2833,69.51,79,100,24.34,overcast clouds
364,Assiniboia,CA,2022-01-29 19:31:27,49.6334,-105.9845,35.51,59,53,6.91,broken clouds
365,Makakilo City,US,2022-01-29 19:31:28,21.3469,-158.0858,78.19,64,0,3.44,clear sky
366,Pucallpa,PE,2022-01-29 19:31:28,-8.3791,-74.5539,84.24,79,75,4.61,broken clouds
367,Abnub,EG,2022-01-29 19:31:29,27.2696,31.1511,51.37,47,0,6.98,clear sky
368,Molina,CL,2022-01-29 19:31:29,-35.1167,-71.2833,74.93,53,0,5.75,clear sky
369,Itoman,JP,2022-01-29 19:31:29,26.1247,127.6694,62.62,92,100,11.5,overcast clouds
370,Grindavik,IS,2022-01-29 19:31:30,63.8424,-22.4338,36.07,75,75,19.57,broken clouds
371,Kralendijk,BQ,2022-01-29 19:31:30,12.15,-68.2667,85.98,58,100,10.36,overcast clouds
372,Kijang,KR,2022-01-29 19:31:31,35.2442,129.2139,33.53,27,100,5.91,overcast clouds
373,Sterling,US,2022-01-29 19:30:42,39.0062,-77.4286,28.4,42,0,1.99,light snow
374,Shelburne,CA,2022-01-29 19:31:31,44.0787,-80.2041,13.12,44,0,6.15,clear sky
375,Maragogi,BR,2022-01-29 19:31:32,-9.0122,-35.2225,77.38,69,100,4.72,overcast clouds
376,Kjollefjord,NO,2022-01-29 19:32:32,70.9457,27.3465,21.02,79,75,11.5,broken clouds
377,Hudson Bay,CA,2022-01-29 19:32:32,52.85,-102.3842,12.04,84,100,1.07,overcast clouds
378,Hami,CN,2022-01-29 19:32:33,42.8,93.45,20.48,46,0,4.85,clear sky
379,Bengkulu,ID,2022-01-29 19:30:20,-3.8004,102.2655,76.19,90,100,3.89,overcast clouds
380,Bloomington,US,2022-01-29 19:30:46,44.8408,-93.2983,28.35,61,75,5.01,broken clouds
381,Shache,CN,2022-01-29 19:32:34,38.4167,77.2406,26.71,43,14,2.73,few clouds
382,Whitehorse,CA,2022-01-29 19:29:06,60.7161,-135.0538,25.11,81,75,5.01,light snow
383,Aleksandro-Nevskiy,RU,2022-01-29 19:32:34,53.4751,40.2095,28.27,82,100,5.21,light snow
384,Ust-Uda,RU,2022-01-29 19:32:34,54.1742,103.0304,-22.49,100,96,0.54,overcast clouds
385,Margasari,ID,2022-01-29 19:32:35,-7.1,109.0167,76.53,92,100,3.09,overcast clouds
386,Alyangula,AU,2022-01-29 19:32:35,-13.8483,136.4192,80.47,89,100,8.05,overcast clouds
387,Cozumel,MX,2022-01-29 19:32:36,20.5083,-86.9458,73.38,69,100,5.01,overcast clouds
388,Mnogovershinnyy,RU,2022-01-29 19:32:36,53.9353,139.9242,-6.2,98,100,5.53,overcast clouds
389,Buchanan,LR,2022-01-29 19:32:37,5.8808,-10.0467,80.56,81,100,7.45,overcast clouds
390,Shimoda,JP,2022-01-29 19:32:37,34.6667,138.95,40.1,70,61,8.72,broken clouds
391,Hervey Bay,AU,2022-01-29 19:32:37,-25.2986,152.8535,74.01,93,73,8.99,broken clouds
392,Pringsewu,ID,2022-01-29 19:32:38,-5.3582,104.9744,73.76,96,100,1.95,light rain
393,Irituia,BR,2022-01-29 19:32:38,-1.7711,-47.4381,73.56,94,100,2.95,moderate rain
394,Imuris,MX,2022-01-29 19:32:39,30.7833,-110.8667,67.21,23,0,1.3,clear sky
395,Emba,KZ,2022-01-29 19:32:39,48.8264,58.1442,15.64,96,100,9.28,overcast clouds
396,Sembakung,ID,2022-01-29 19:32:39,3.8167,117.25,76.93,97,100,1.39,overcast clouds
397,Vostok,RU,2022-01-29 19:32:40,46.4856,135.8833,-17.19,99,100,3.8,overcast clouds
398,Inyonga,TZ,2022-01-29 19:32:40,-6.7167,32.0667,64.51,95,82,0.45,broken clouds
399,Severo-Yeniseyskiy,RU,2022-01-29 19:32:41,60.3725,93.0408,-2.16,99,100,3.27,overcast clouds
400,Nortelandia,BR,2022-01-29 19:32:41,-14.4547,-56.8028,76.96,93,100,2.84,overcast clouds
401,Andenes,NO,2022-01-29 19:32:41,69.3143,16.1194,26.58,63,100,16.11,overcast clouds
402,Ridgecrest,US,2022-01-29 19:32:42,35.6225,-117.6709,53.65,19,0,1.01,clear sky
403,Milkovo,RU,2022-01-29 19:32:42,54.7167,158.6167,18.95,97,100,2.26,light snow
404,Paamiut,GL,2022-01-29 19:32:43,61.994,-49.6678,16.52,76,100,24.67,light snow
405,Rolla,US,2022-01-29 19:32:43,37.9514,-91.7713,50.23,31,0,7.0,clear sky
406,Atar,MR,2022-01-29 19:32:44,20.5169,-13.0499,77.54,18,100,4.41,overcast clouds
407,Russkaya Polyana,UA,2022-01-29 19:32:44,49.417,31.9201,25.25,89,97,10.16,overcast clouds
408,Kingsland,US,2022-01-29 19:29:52,30.8,-81.6898,48.33,43,2,11.03,clear sky
409,Muros,ES,2022-01-29 19:32:45,42.7762,-9.0603,55.9,77,14,4.43,few clouds
410,Sioux Lookout,CA,2022-01-29 19:32:45,50.1001,-91.917,8.98,78,100,5.75,overcast clouds
411,Canberra,AU,2022-01-29 19:30:46,-35.2835,149.1281,68.68,92,100,2.3,mist
412,Gimbi,ET,2022-01-29 19:32:46,9.1667,35.8333,63.01,39,37,2.86,scattered clouds
413,Vezirkopru,TR,2022-01-29 19:32:47,41.1436,35.4547,16.29,88,87,2.33,light snow
414,Broome,US,2022-01-29 19:31:15,42.2506,-75.833,13.69,56,0,4.0,clear sky
415,Caravelas,BR,2022-01-29 19:29:59,-17.7125,-39.2481,84.25,66,0,11.36,clear sky
416,Arawa,PG,2022-01-29 19:32:47,-6.2132,155.5367,77.36,93,100,4.25,light rain
417,Puri,IN,2022-01-29 19:32:48,19.8,85.85,57.72,40,5,3.29,clear sky
418,Snasa,NO,2022-01-29 19:32:48,64.2457,12.3778,35.13,99,100,4.32,light snow
419,Chekhov,RU,2022-01-29 19:32:49,55.1431,37.4711,25.03,97,98,4.09,overcast clouds
420,Alta Floresta,BR,2022-01-29 19:32:49,-9.8756,-56.0861,82.22,83,40,6.91,scattered clouds
421,Lakes Entrance,AU,2022-01-29 19:32:49,-37.8811,147.981,67.57,96,100,7.49,overcast clouds
422,Guarapari,BR,2022-01-29 19:33:50,-20.6667,-40.4975,85.89,71,66,18.9,broken clouds
423,Jiuquan,CN,2022-01-29 19:33:50,39.7432,98.5174,14.79,59,6,5.23,clear sky
424,Palmer,US,2022-01-29 19:33:51,42.1584,-72.3287,17.26,79,100,7.0,snow
425,Svetlogorsk,BY,2022-01-29 19:33:51,52.6333,29.7333,22.23,95,96,10.49,overcast clouds
426,Tiarei,PF,2022-01-29 19:33:51,-17.5333,-149.3333,80.62,74,99,13.89,overcast clouds
427,Saintes,FR,2022-01-29 19:33:52,45.6667,-0.75,44.29,89,70,3.91,broken clouds
428,Itacare,BR,2022-01-29 19:33:52,-14.2775,-38.9967,76.89,72,99,7.29,overcast clouds
429,Marienburg,PL,2022-01-29 19:33:53,54.0359,19.0266,47.95,82,100,24.58,light rain
430,Sungaipenuh,ID,2022-01-29 19:33:53,-2.0833,101.3833,64.8,97,99,1.79,overcast clouds
431,Tura,IN,2022-01-29 19:33:54,25.5198,90.2201,50.94,57,0,2.19,clear sky
432,Salekhard,RU,2022-01-29 19:33:54,66.53,66.6019,-23.49,100,100,2.26,overcast clouds
433,Lake Charles,US,2022-01-29 19:33:55,30.2131,-93.2044,58.98,37,0,0.0,clear sky
434,Araouane,ML,2022-01-29 19:32:33,18.9048,-3.5265,73.42,13,91,12.35,overcast clouds
435,Cooma,AU,2022-01-29 19:33:55,-36.2333,149.1333,64.17,100,100,3.44,overcast clouds
436,Turkistan,KZ,2022-01-29 19:33:56,43.0,68.0,29.88,74,3,3.87,clear sky
437,Senador Jose Porfirio,BR,2022-01-29 19:33:57,-2.5908,-51.9542,74.01,94,100,2.26,overcast clouds
438,Sandwick,GB,2022-01-29 19:33:57,60.0,-1.25,40.82,60,100,40.29,overcast clouds
439,Mawlaik,MM,2022-01-29 19:33:57,23.6333,94.4167,52.59,66,0,0.81,clear sky
440,Alice Springs,AU,2022-01-29 19:33:58,-23.7,133.8833,74.75,94,75,10.36,broken clouds
441,Omsukchan,RU,2022-01-29 19:31:30,62.5333,155.8,-6.74,96,100,5.01,overcast clouds
442,Rio Gallegos,AR,2022-01-29 19:33:58,-51.6226,-69.2181,59.05,47,75,21.85,broken clouds
443,Prado,BR,2022-01-29 19:33:59,-17.3411,-39.2208,80.87,78,0,12.15,clear sky
444,Staryy Nadym,RU,2022-01-29 19:33:59,65.6118,72.6842,-7.92,96,100,8.93,overcast clouds
445,Aksarka,RU,2022-01-29 19:33:59,66.5606,67.7975,-17.37,100,100,6.35,overcast clouds
446,Hauterive,FR,2022-01-29 19:34:00,46.0901,3.4459,39.02,92,100,2.75,overcast clouds
447,Manjeshwar,IN,2022-01-29 19:34:01,12.7194,74.8861,79.75,71,76,4.05,broken clouds
448,Luanda,AO,2022-01-29 19:30:27,-8.8368,13.2343,82.4,74,40,6.91,scattered clouds
449,Lorengau,PG,2022-01-29 19:32:50,-2.0226,147.2712,80.15,81,98,7.65,overcast clouds
450,Pontian Kecil,MY,2022-01-29 19:34:01,1.4801,103.3899,78.93,85,100,7.38,overcast clouds
451,Airai,TL,2022-01-29 19:32:38,-8.9266,125.4092,60.64,93,100,3.42,overcast clouds
452,Taoudenni,ML,2022-01-29 19:34:02,22.6783,-3.9836,75.24,11,100,13.67,overcast clouds
453,Iringa,TZ,2022-01-29 19:34:02,-7.7667,35.7,57.54,97,96,1.19,overcast clouds
454,Barranca,PE,2022-01-29 19:34:02,-10.75,-77.7667,73.36,72,91,11.54,overcast clouds
455,Mecca,SA,2022-01-29 19:34:03,21.4267,39.8261,65.93,58,26,7.9,scattered clouds
456,Sur,OM,2022-01-29 19:31:31,22.5667,59.5289,71.37,54,3,4.65,clear sky
457,Chaykovskaya,RU,2022-01-29 19:34:03,58.1279,55.5378,4.89,99,100,2.75,overcast clouds
458,Maun,BW,2022-01-29 19:34:04,-19.9833,23.4167,68.74,92,100,6.35,overcast clouds
459,Tadpatri,IN,2022-01-29 19:34:04,14.9167,78.0167,70.34,77,5,4.56,clear sky
460,Kununurra,AU,2022-01-29 19:31:11,-15.7667,128.7333,78.78,94,40,10.36,scattered clouds
461,Natal,BR,2022-01-29 19:30:03,-5.795,-35.2094,84.42,70,75,11.5,broken clouds
462,Codrington,AU,2022-01-29 19:34:05,-38.2667,141.9667,62.04,85,72,4.16,broken clouds
463,Quelimane,MZ,2022-01-29 19:34:05,-17.8786,36.8883,82.35,83,20,8.05,few clouds
464,Abhar,IR,2022-01-29 19:35:06,36.1468,49.218,25.03,76,1,7.14,clear sky
465,Asfi,MA,2022-01-29 19:35:06,32.2994,-9.2372,62.15,66,33,8.08,scattered clouds
466,Honiara,SB,2022-01-29 19:35:07,-9.4333,159.95,77.45,89,100,2.21,light rain
467,Birjand,IR,2022-01-29 19:35:07,32.8663,59.2211,36.07,38,0,4.61,clear sky
468,Coos Bay,US,2022-01-29 19:35:08,43.3665,-124.2179,55.15,71,0,4.61,clear sky
469,Karratha,AU,2022-01-29 19:35:08,-20.7377,116.8463,80.98,62,68,16.33,broken clouds
470,Rapid Valley,US,2022-01-29 19:35:08,44.0625,-103.1463,55.76,17,0,1.01,clear sky
471,Inuvik,CA,2022-01-29 19:35:09,68.3499,-133.7218,-11.99,76,20,2.3,few clouds
472,Sorong,ID,2022-01-29 19:35:09,-0.8833,131.25,80.42,80,99,8.3,overcast clouds
473,Changping,CN,2022-01-29 19:35:10,40.2186,116.2197,15.44,41,1,2.08,clear sky
474,Guadalupe Y Calvo,MX,2022-01-29 19:35:10,26.1,-106.9667,61.68,29,3,10.02,clear sky
475,North Myrtle Beach,US,2022-01-29 19:35:11,33.816,-78.68,42.12,53,0,16.11,clear sky
476,Vaitape,PF,2022-01-29 19:35:11,-16.5167,-151.75,79.72,75,19,11.86,light rain
477,Dentsville,US,2022-01-29 19:35:12,34.064,-80.9582,43.43,30,40,3.0,scattered clouds
478,Remontnoye,RU,2022-01-29 19:35:12,46.5614,43.6501,34.21,98,100,17.94,snow
479,Arman,RU,2022-01-29 19:35:12,59.7,150.1667,6.93,81,100,14.41,overcast clouds
480,La Baule-Escoublac,FR,2022-01-29 19:35:13,47.2922,-2.364,49.41,98,100,6.91,overcast clouds
481,Timra,SE,2022-01-29 19:35:13,62.487,17.3257,31.71,94,100,5.75,light snow
482,Isangel,VU,2022-01-29 19:34:09,-19.55,169.2667,77.11,88,100,5.75,moderate rain
483,Bauchi,NG,2022-01-29 19:35:14,10.5,10.0,65.71,21,94,6.26,overcast clouds
484,Barstow,US,2022-01-29 19:35:14,34.8986,-117.0228,54.77,14,100,4.16,overcast clouds
485,Salalah,OM,2022-01-29 19:35:15,17.0151,54.0924,73.49,68,0,4.61,clear sky
486,Sibolga,ID,2022-01-29 19:35:15,1.7427,98.7792,74.5,92,84,2.06,broken clouds
487,Caacupe,PY,2022-01-29 19:35:15,-25.3833,-57.15,92.08,20,0,8.28,clear sky
488,Sorland,NO,2022-01-29 19:35:16,67.667,12.6934,32.68,77,100,16.4,light snow
489,Porbandar,IN,2022-01-29 19:35:16,21.6422,69.6093,66.24,51,0,9.6,clear sky
490,Qandala,SO,2022-01-29 19:35:17,11.472,49.8728,73.42,66,100,5.75,overcast clouds
491,Digras,IN,2022-01-29 19:35:17,20.1167,77.7167,61.68,30,5,1.34,clear sky
492,Akdagmadeni,TR,2022-01-29 19:35:18,39.6603,35.8836,13.15,77,100,4.27,overcast clouds
493,Manzhouli,CN,2022-01-29 19:35:18,49.6,117.4333,-11.79,95,14,5.26,few clouds
494,Miles City,US,2022-01-29 19:35:18,46.4083,-105.8406,47.52,42,0,9.22,clear sky
495,Arandis,NA,2022-01-29 19:35:19,-22.4167,14.9667,57.47,71,52,6.93,broken clouds
496,Leningradskiy,RU,2022-01-29 19:30:59,69.3833,178.4167,-9.15,89,41,5.06,scattered clouds
497,Atambua,ID,2022-01-29 19:35:19,-9.1061,124.8925,73.99,91,100,4.85,light rain
498,Sawtell,AU,2022-01-29 19:31:57,-30.3833,153.1,69.19,96,90,3.44,overcast clouds
499,Ouesso,CG,2022-01-29 19:35:20,1.6136,16.0517,76.87,27,98,1.7,overcast clouds
500,Matara,LK,2022-01-29 19:35:20,5.9485,80.5353,77.22,88,97,6.26,overcast clouds
501,Valparaiso,CL,2022-01-29 19:35:21,-33.0393,-71.6273,73.04,59,40,9.22,scattered clouds
502,Mao,ES,2022-01-29 19:35:21,39.8885,4.2658,43.36,93,0,3.44,clear sky
503,Djibo,BF,2022-01-29 19:35:21,14.1022,-1.6306,75.67,13,12,10.94,few clouds
504,Maldonado,UY,2022-01-29 19:35:22,-34.6667,-54.9167,79.99,50,2,11.63,clear sky
505,Akhmeta,GE,2022-01-29 19:35:22,42.0311,45.2075,34.32,57,11,5.23,few clouds
506,Sarkand,KZ,2022-01-29 19:35:23,45.41,79.9186,29.16,94,100,3.71,light snow
507,Taltal,CL,2022-01-29 19:36:23,-25.4,-70.4833,69.03,68,9,7.81,clear sky
508,Sainte-Thecle,CA,2022-01-29 19:36:23,46.8168,-72.4991,3.13,78,100,14.81,overcast clouds
509,Ucluelet,CA,2022-01-29 19:36:24,48.9329,-125.5528,43.09,89,100,1.01,light rain
510,Khasan,RU,2022-01-29 19:36:24,42.4308,130.6434,18.0,50,0,13.51,clear sky
511,Belaya Gora,RU,2022-01-29 19:34:13,68.5333,146.4167,-12.59,99,100,1.57,overcast clouds
512,Frankenburg,AT,2022-01-29 19:36:25,48.0684,13.4907,43.61,53,100,17.0,overcast clouds
513,Noumea,NC,2022-01-29 19:36:25,-22.2763,166.4572,79.0,99,71,7.85,broken clouds
514,Suntar,RU,2022-01-29 19:36:26,62.1444,117.6319,-17.68,97,39,4.9,scattered clouds
515,Constantine,DZ,2022-01-29 19:36:26,36.365,6.6147,44.01,52,0,2.3,clear sky
516,Tahe,CN,2022-01-29 19:36:26,52.3333,124.7333,-1.68,81,15,7.23,few clouds
517,Takoradi,GH,2022-01-29 19:36:27,4.8845,-1.7554,80.42,84,15,7.43,few clouds
518,Ahipara,NZ,2022-01-29 19:32:51,-35.1667,173.1667,64.6,73,70,6.93,broken clouds
519,Douentza,ML,2022-01-29 19:36:27,14.9951,-2.9517,75.87,12,49,7.94,scattered clouds
520,Hit,IQ,2022-01-29 19:36:27,33.6416,42.8251,50.32,59,29,3.71,scattered clouds
521,Almaznyy,RU,2022-01-29 19:36:28,48.0448,40.045,32.14,94,99,15.28,overcast clouds
522,Port Hedland,AU,2022-01-29 19:36:28,-20.3167,118.5667,82.45,74,100,6.91,overcast clouds
523,Novo Horizonte,BR,2022-01-29 19:36:28,-21.4681,-49.2208,72.36,91,100,3.47,overcast clouds
524,Sadsadan,PH,2022-01-29 19:36:29,16.9333,120.8667,60.31,96,86,1.88,overcast clouds
525,Santa Lucia,ES,2022-01-29 19:36:29,27.9117,-15.5407,57.76,55,100,14.97,haze
526,Manokwari,ID,2022-01-29 19:33:54,-0.8667,134.0833,77.52,77,98,6.87,overcast clouds
527,Naryan-Mar,RU,2022-01-29 19:36:30,67.6713,53.087,12.99,94,100,14.74,light snow
528,Umm Lajj,SA,2022-01-29 19:36:30,25.0213,37.2685,63.66,48,0,11.54,clear sky
529,Pyaozerskiy,RU,2022-01-29 19:36:30,65.8333,31.1667,20.86,96,100,5.3,light snow
530,Walvis Bay,NA,2022-01-29 19:36:31,-22.9575,14.5053,64.09,77,10,10.36,clear sky
531,Solnechnyy,RU,2022-01-29 19:36:31,50.7214,136.6319,-17.25,94,55,3.09,broken clouds
532,Casper,US,2022-01-29 19:36:32,42.8666,-106.3131,50.5,42,0,23.02,clear sky
533,Letterkenny,IE,2022-01-29 19:36:32,54.95,-7.7333,40.39,72,48,6.11,scattered clouds
534,Elko,US,2022-01-29 19:34:22,41.0002,-115.5012,35.06,46,5,1.01,clear sky
535,Kudahuvadhoo,MV,2022-01-29 19:36:33,2.6708,72.8944,81.43,71,84,8.88,broken clouds
536,Itarema,BR,2022-01-29 19:36:33,-2.9248,-39.9167,81.75,65,94,10.36,overcast clouds
537,Ballina,AU,2022-01-29 19:36:33,-28.8667,153.5667,68.77,94,88,6.91,overcast clouds
538,Njombe,TZ,2022-01-29 19:36:34,-9.3333,34.7667,56.7,96,97,2.8,overcast clouds
539,Mapastepec,MX,2022-01-29 19:36:34,15.4333,-92.9,92.07,39,27,1.28,scattered clouds
540,Liuzhou,CN,2022-01-29 19:36:34,24.3126,109.3892,39.58,79,4,8.81,clear sky
541,Silifke,TR,2022-01-29 19:36:35,36.3778,33.9344,46.13,66,100,10.4,overcast clouds
542,Jacareacanga,BR,2022-01-29 19:36:35,-6.2222,-57.7528,75.24,92,100,2.33,overcast clouds
543,Iquitos,PE,2022-01-29 19:36:36,-3.7481,-73.2472,91.44,49,40,8.05,scattered clouds
544,Londonderry,GB,2022-01-29 19:36:36,54.9981,-7.3093,40.46,71,35,6.42,scattered clouds
545,Honningsvag,NO,2022-01-29 19:36:36,70.9821,25.9704,20.73,73,92,11.99,light snow
546,Hofn,IS,2022-01-29 19:32:17,64.2539,-15.2082,24.82,58,0,5.75,clear sky
547,Letychiv,UA,2022-01-29 19:36:37,49.3826,27.6305,18.84,96,72,8.75,broken clouds
548,Ibra,OM,2022-01-29 19:36:36,22.6906,58.5334,65.86,58,5,3.78,clear sky
549,Doha,QA,2022-01-29 19:32:42,25.2867,51.5333,62.58,61,0,8.05,clear sky
550,Jiwani,PK,2022-01-29 19:36:37,25.05,61.7417,72.21,77,0,11.65,clear sky
551,Almazar,UZ,2022-01-29 19:36:38,40.3217,69.0106,33.51,74,100,6.6,overcast clouds
552,Hay River,CA,2022-01-29 19:36:38,60.8156,-115.7999,-2.22,78,75,6.91,light snow
553,Xining,CN,2022-01-29 19:35:18,36.6167,101.7667,11.16,59,7,2.24,clear sky
554,Mapiripan,CO,2022-01-29 19:37:39,2.8892,-72.1256,94.8,28,100,8.9,overcast clouds
555,Mmabatho,ZA,2022-01-29 19:37:39,-25.85,25.6333,67.96,73,51,10.36,broken clouds
556,Nemuro,JP,2022-01-29 19:37:39,43.3236,145.575,18.79,74,60,15.37,broken clouds
557,Porosozero,RU,2022-01-29 19:37:40,62.7191,32.727,18.97,83,100,12.26,light snow
558,Narsaq,GL,2022-01-29 19:37:40,60.9167,-46.05,17.82,94,99,3.78,overcast clouds
559,La Ronge,CA,2022-01-29 19:37:40,55.1001,-105.2842,8.85,66,100,2.3,overcast clouds
560,Steinbach,DE,2022-01-29 19:37:41,50.1667,8.5667,48.02,92,100,1.99,overcast clouds
561,Puerto Carreno,CO,2022-01-29 19:37:41,6.189,-67.4859,93.18,36,40,13.8,scattered clouds
562,Biloela,AU,2022-01-29 19:37:42,-24.4167,150.5,68.97,88,5,8.57,clear sky
563,Stokmarknes,NO,2022-01-29 19:37:35,68.5646,14.9108,30.49,66,100,3.76,overcast clouds
564,Pierre,US,2022-01-29 19:37:41,44.3683,-100.351,50.92,30,0,1.99,clear sky
565,Avera,US,2022-01-29 19:37:43,33.194,-82.5271,43.92,25,0,13.62,clear sky
566,Te Anau,NZ,2022-01-29 19:35:08,-45.4167,167.7167,57.4,89,100,1.74,moderate rain
567,Bridlington,GB,2022-01-29 19:37:43,54.0831,-0.1919,46.58,69,6,21.34,clear sky
568,Manggar,ID,2022-01-29 19:37:44,-2.8833,108.2667,78.66,82,100,5.41,overcast clouds
569,Obera,AR,2022-01-29 19:37:44,-27.4871,-55.1199,89.51,30,0,7.43,clear sky
570,Praia,CV,2022-01-29 19:37:44,14.9215,-23.5087,70.34,64,75,17.27,broken clouds
571,Funes,AR,2022-01-29 19:37:45,-32.9157,-60.81,89.94,29,2,7.94,clear sky
572,Xai-Xai,MZ,2022-01-29 19:37:45,-25.0519,33.6442,75.88,84,100,4.97,overcast clouds
573,Bismarck,US,2022-01-29 19:37:45,46.8083,-100.7837,38.88,65,0,17.27,clear sky
574,Serebryanyy Bor,RU,2022-01-29 19:37:46,56.8,124.8,-7.38,93,100,10.16,overcast clouds
575,Zhuanghe,CN,2022-01-29 19:37:46,39.7008,122.9911,19.6,42,0,5.19,clear sky
576,San Juan Del Sur,NI,2022-01-29 19:37:47,11.2529,-85.8705,84.42,58,20,9.22,few clouds
577,Marsh Harbour,BS,2022-01-29 19:35:29,26.5412,-77.0636,59.61,61,19,29.95,few clouds
578,Novouzensk,RU,2022-01-29 19:35:02,50.4592,48.1431,32.79,98,100,15.66,overcast clouds
579,Havelock,US,2022-01-29 19:33:24,34.8791,-76.9013,40.98,57,40,11.01,scattered clouds
580,Yambio,SS,2022-01-29 19:37:47,4.5721,28.3955,72.72,29,57,4.47,broken clouds
581,Saint-Georges,GD,2022-01-29 19:36:20,12.0564,-61.7485,83.88,58,20,16.11,few clouds
582,Floriano,BR,2022-01-29 19:37:48,-6.7669,-43.0225,79.84,65,92,4.65,overcast clouds
583,Tambacounda,SN,2022-01-29 19:37:48,13.7539,-13.7586,95.05,17,0,4.61,clear sky
584,Bollnas,SE,2022-01-29 19:37:49,61.3482,16.3946,33.39,99,100,6.11,light snow
585,High Level,CA,2022-01-29 19:37:49,58.5169,-117.136,12.31,92,100,5.75,light snow
586,Hasaki,JP,2022-01-29 19:34:02,35.7333,140.8333,30.6,70,53,15.93,broken clouds
587,Meulaboh,ID,2022-01-29 19:37:49,4.1363,96.1285,77.63,88,89,2.86,overcast clouds
588,Pascagoula,US,2022-01-29 19:33:00,30.3658,-88.5561,50.72,24,0,7.83,clear sky
589,Kalabo,ZM,2022-01-29 19:37:50,-14.97,22.6814,65.5,92,95,5.55,overcast clouds
590,Lilongwe,MW,2022-01-29 19:37:50,-13.9669,33.7873,66.36,96,100,1.57,light rain
591,Bastia,FR,2022-01-29 19:37:51,42.6667,9.3333,52.3,77,0,3.44,clear sky
592,Batagay-Alyta,RU,2022-01-29 19:37:51,67.8006,130.4114,-19.82,95,65,5.14,broken clouds
593,Acapulco,MX,2022-01-29 19:36:50,16.8634,-99.8901,85.82,66,20,10.36,few clouds
594,Kasumkent,RU,2022-01-29 19:37:52,41.6773,48.146,30.29,70,21,4.68,few clouds
595,Ulladulla,AU,2022-01-29 19:38:52,-35.35,150.4667,71.76,93,98,2.13,overcast clouds
596,Mildura,AU,2022-01-29 19:38:53,-34.2,142.15,67.96,77,0,10.36,clear sky
597,Hajnowka,PL,2022-01-29 19:38:53,52.7433,23.5812,33.03,88,100,4.0,overcast clouds
598,Gunjur,GM,2022-01-29 19:38:54,13.2019,-16.7339,77.07,57,0,9.22,clear sky
599,Ocos,GT,2022-01-29 19:38:54,14.5094,-92.1933,90.1,65,4,9.95,clear sky
600,Khash,IR,2022-01-29 19:38:54,28.2211,61.2158,50.7,58,17,6.71,few clouds
601,San Rafael,AR,2022-01-29 19:38:55,-34.6177,-68.3301,91.36,24,0,15.93,clear sky
602,Millinocket,US,2022-01-29 19:38:55,45.6573,-68.7098,6.91,78,100,16.11,heavy snow
603,Santos,BR,2022-01-29 19:38:32,-23.9608,-46.3336,80.26,88,100,3.44,light intensity drizzle
604,Mindelo,CV,2022-01-29 19:38:56,16.8901,-24.9804,71.15,60,75,24.16,broken clouds
605,Masindi,UG,2022-01-29 19:38:56,1.6744,31.715,73.72,33,61,2.64,broken clouds
606,Shyroke,UA,2022-01-29 19:38:56,47.6917,33.2571,26.85,94,43,9.44,scattered clouds
607,Port Keats,AU,2022-01-29 19:38:57,-14.25,129.55,81.18,84,100,18.16,overcast clouds
608,Takab,IR,2022-01-29 19:38:57,36.4009,47.1133,9.99,91,19,3.06,few clouds
609,Goroka,PG,2022-01-29 19:38:58,-6.0834,145.3873,59.29,97,95,2.19,overcast clouds
610,Mashhad,IR,2022-01-29 19:38:58,36.297,59.6062,33.94,75,100,4.61,overcast clouds
611,Aljezur,PT,2022-01-29 19:38:58,37.3191,-8.8033,54.63,57,32,6.11,scattered clouds
612,Zyryanka,RU,2022-01-29 19:38:59,65.75,150.85,-21.21,100,90,1.32,overcast clouds
613,Hirtshals,DK,2022-01-29 19:38:59,57.5881,9.9592,42.85,66,7,46.73,clear sky
614,Lata,PT,2022-01-29 19:34:07,40.1629,-8.3327,57.61,51,0,5.06,clear sky
615,Kohima,IN,2022-01-29 19:39:00,25.6667,94.1167,40.39,92,0,1.83,clear sky
616,Kondinskoye,RU,2022-01-29 19:39:00,59.6481,67.41,3.99,97,100,3.98,overcast clouds
617,Semey,KZ,2022-01-29 19:39:00,50.4111,80.2275,9.19,78,100,14.9,overcast clouds
618,Mwense,ZM,2022-01-29 19:39:01,-10.3845,28.698,67.66,94,100,2.93,overcast clouds
619,Venustiano Carranza,MX,2022-01-29 19:39:01,19.43,-99.0992,67.14,40,0,0.0,clear sky
620,Vardo,NO,2022-01-29 19:39:01,70.3705,31.1107,21.25,77,98,1.03,overcast clouds
621,Ankazobe,MG,2022-01-29 19:39:02,-18.3167,47.1167,70.21,81,97,4.16,overcast clouds
622,Axim,GH,2022-01-29 19:39:02,4.8699,-2.2405,80.67,82,58,8.41,broken clouds
623,Waycross,US,2022-01-29 19:39:03,31.2136,-82.354,44.83,34,0,16.11,clear sky
624,Roald,NO,2022-01-29 19:39:03,62.5833,6.1333,39.0,87,75,14.97,broken clouds
625,Westerly,US,2022-01-29 19:39:04,41.3776,-71.8273,20.88,88,100,11.01,fog
626,San-Pedro,CI,2022-01-29 19:39:04,4.7485,-6.6363,80.37,84,28,7.54,scattered clouds
627,Komsomolskiy,UZ,2022-01-29 19:39:05,40.4272,71.7189,36.32,93,75,0.0,mist
628,Hilter,DE,2022-01-29 19:39:05,52.15,8.15,47.79,67,100,22.46,overcast clouds
629,Kokopo,PG,2022-01-29 19:39:05,-4.352,152.2633,77.2,86,100,5.01,overcast clouds
630,Yam,RU,2022-01-29 19:39:06,55.4844,37.7492,25.57,93,100,6.71,mist
631,Grand-Santi,GF,2022-01-29 19:39:06,4.25,-54.3833,84.25,61,85,4.7,overcast clouds
632,Khorixas,NA,2022-01-29 19:39:07,-20.3667,14.9667,69.64,54,100,9.24,overcast clouds
633,Ust-Kuyga,RU,2022-01-29 19:39:07,70.0167,135.6,-34.89,100,99,6.02,overcast clouds
634,Kalat,PK,2022-01-29 19:39:07,29.0225,66.5916,44.19,51,47,3.04,scattered clouds
635,Qesarya,IL,2022-01-29 19:39:08,32.5189,34.9046,50.31,75,73,5.82,broken clouds
636,Shahr-E Babak,IR,2022-01-29 19:39:08,30.1165,55.1186,44.19,50,74,8.46,broken clouds
637,Villa Bruzual,VE,2022-01-29 19:39:09,9.3328,-69.1208,98.26,23,27,10.69,scattered clouds
638,Amapa,BR,2022-01-29 19:39:09,1.0,-52.0,75.38,97,100,3.15,light rain
639,Antalaha,MG,2022-01-29 19:39:09,-14.9003,50.2788,74.43,87,11,6.02,few clouds
640,Krasnyy Kut,RU,2022-01-29 19:39:10,50.95,46.9667,32.5,98,100,13.69,light snow
641,Cairns,AU,2022-01-29 19:36:12,-16.9167,145.7667,76.95,83,75,3.44,broken clouds
642,Mahibadhoo,MV,2022-01-29 19:40:10,3.7833,72.9667,81.79,69,8,10.67,clear sky
643,Tecoanapa,MX,2022-01-29 19:40:11,16.5167,-98.75,85.53,56,20,10.45,few clouds
644,Yuzhnyy,RU,2022-01-29 19:40:11,53.2542,83.6936,3.58,85,86,6.71,overcast clouds
645,Hobyo,SO,2022-01-29 19:38:11,5.3505,48.5268,77.11,77,19,24.34,few clouds
646,Emirdag,TR,2022-01-29 19:40:12,39.0197,31.15,17.38,90,100,2.75,overcast clouds
647,Naro Moru,KE,2022-01-29 19:40:12,-0.1676,37.0213,53.91,89,66,1.19,broken clouds
648,Meadow Lake,US,2022-01-29 19:40:12,34.8014,-106.5436,50.77,32,61,4.47,broken clouds
649,Pereslavl-Zalesskiy,RU,2022-01-29 19:40:13,56.7393,38.8563,7.65,100,89,3.22,overcast clouds
650,Namtsy,RU,2022-01-29 19:40:13,62.7161,129.6658,-30.89,100,76,1.95,broken clouds
651,Kurumkan,RU,2022-01-29 19:40:14,54.3,110.3,-16.89,92,42,3.69,scattered clouds
652,Banda Aceh,ID,2022-01-29 19:40:14,5.5577,95.3222,79.52,81,56,6.96,broken clouds
653,Tilichiki,RU,2022-01-29 19:40:15,60.4667,166.1,20.37,71,100,14.05,overcast clouds
654,Port Moresby,PG,2022-01-29 19:39:07,-9.4431,147.1797,76.42,88,100,5.75,light rain
655,Baiyin,CN,2022-01-29 19:40:15,36.5583,104.2081,16.68,81,26,2.57,scattered clouds
656,Ekhabi,RU,2022-01-29 19:40:16,53.5102,142.9671,-16.02,92,78,8.03,broken clouds
657,Ivanteyevka,RU,2022-01-29 19:40:16,55.9711,37.9208,25.43,98,93,2.17,overcast clouds
658,Warrnambool,AU,2022-01-29 19:40:16,-38.3833,142.4833,64.81,87,94,6.04,overcast clouds
659,Hovd,MN,2022-01-29 19:40:17,48.0056,91.6419,-13.02,72,13,3.09,few clouds
660,Namibe,AO,2022-01-29 19:35:52,-15.1961,12.1522,72.39,77,100,6.76,overcast clouds
661,Peniche,PT,2022-01-29 19:40:17,39.3558,-9.3811,60.1,51,6,8.88,clear sky
662,Dubbo,AU,2022-01-29 19:40:17,-32.25,148.6167,69.93,94,100,10.36,overcast clouds
663,Manicore,BR,2022-01-29 19:40:18,-5.8092,-61.3003,74.34,98,100,0.94,moderate rain
664,Dhidhdhoo,MV,2022-01-29 19:40:18,6.8833,73.1,81.95,76,81,18.45,broken clouds
665,Merauke,ID,2022-01-29 19:40:19,-8.4667,140.3333,80.6,77,100,8.84,overcast clouds
666,Kieta,PG,2022-01-29 19:40:19,-6.2167,155.6333,78.93,88,100,8.52,light rain
667,Aldan,RU,2022-01-29 19:40:20,58.6031,125.3894,-13.77,99,100,4.16,overcast clouds
668,Mujiayingzi,CN,2022-01-29 19:40:20,42.1167,118.7833,12.24,43,0,4.74,clear sky
669,Yarada,IN,2022-01-29 19:40:20,17.65,83.2667,64.72,88,20,2.3,mist
670,Sargatskoye,RU,2022-01-29 19:40:21,55.6101,73.4972,4.96,85,100,9.46,overcast clouds
671,Copiapo,CL,2022-01-29 19:38:19,-27.3667,-70.3333,67.69,39,0,10.6,clear sky
672,Jega,NG,2022-01-29 19:40:21,12.2175,4.3792,73.98,14,3,10.31,clear sky
673,Shubarkuduk,KZ,2022-01-29 19:40:22,49.1447,56.4872,14.47,97,99,7.47,overcast clouds
674,Severomuysk,RU,2022-01-29 19:40:22,56.1481,113.4267,-20.54,97,32,4.12,scattered clouds
675,Wahiawa,US,2022-01-29 19:40:22,21.5028,-158.0236,76.37,68,0,3.44,clear sky
676,Kamaishi,JP,2022-01-29 19:40:23,39.2667,141.8833,26.94,60,24,12.64,few clouds
677,Rundu,NA,2022-01-29 19:40:23,-17.9333,19.7667,68.76,90,100,6.04,light rain
678,Lashio,MM,2022-01-29 19:40:24,22.9333,97.75,45.93,80,0,1.19,clear sky
